id,type,name,time,dangerous,legal,Remarks,lat,lng
,urban,企業廣場門口,Daytime,Y,N,,22.3216633831,114.2082438129
,cross-harbour,企業廣場對面 常悅道,PM,Y,N,,22.3215878704,114.2083520194
,urban,Megabox,Daytime,N,Y,,22.3202128295,114.2084564292
,urban,小西灣邨 燈位前,"Daytime; Midnight",N,N,,22.2626157872,114.2495768147
,urban,小西灣邨閘口,Daytime,Y,N,,22.2648513624,114.2477695756
,urban,嘉業街常安街口 發達中心門口 燈位前,Daytime,N,N,,22.2676156963,114.2435011121
,urban,翠灣邨巴士站,"Daytime; Midnight",N,N,,22.2685661156,114.2408775780
,urban,金鐘站的士站,Daytime,N,Y,,22.2791713731,114.1645805736
,urban,遮打道 (歷山大廈) 的士站,Daytime,N,Y,,22.2817369270,114.1587269792
,cross-harbour,遮打道 (歷山大廈) 過海的士站,Daytime,N,Y,,22.2817984084,114.1585153120
,urban,纜車站的士站,Daytime,N,Y,,22.2778248995,114.1596030725
,urban,林士街的士站,Daytime,N,Y,,22.2864638875,114.1533811962
,urban,香港站的士站 (地底),Daytime,N,Y,,22.2853379333,114.1568267204
,urban,IFC的士站,Daytime,N,N,,22.2854626494,114.1579011924
,urban,山頂的士站,Daytime,N,Y,,22.2703272729,114.1498825179
,urban,港澳碼頭的士站,"Daytime; Midnight",N,Y,,22.2882452196,114.1508913388
,cross-harbour,港澳碼頭過海的士站,"Daytime; Midnight",N,Y,,22.2882550995,114.1508320592
,urban,爹核士街,Daytime,N,Y,,22.2835831131,114.1266067206
,cross-harbour,加多近街過海的士站,Daytime,N,Y,,22.2818265142,114.1262251501
,urban,中環二號碼頭的士站,Daytime,N,Y,,22.2876671202,114.1568608909
,urban,中環四號碼頭,Daytime,N,N,,22.2872543335,114.1583681891
,cross-harbour,中環碼頭過海的士站,Daytime,N,Y,,22.2869170771,114.1597274151
,urban,中環六號碼頭的士站,Daytime,N,Y,,22.2867150741,114.1603633659
,urban,中環八號碼頭的士站,Daytime,N,Y,,22.2860914980,114.1614871953
,urban,IFC二期寫字樓的士站,PM,N,Y,,22.2856119573,114.1592869955
,urban,港景街的士站,"Daytime; Midnight",Y,N,未到正式站前靠右排 正式的士站沒人使用,22.2841311674,114.1585751104
,cross-harbour,中環交易廣場過海的士站,Daytime,N,Y,,22.2837763376,114.1586728759
,urban,畢打街的士站,"Daytime; Midnight",N,Y,,22.2817123345,114.1574332466
,cross-harbour,畢打街非法過海站,"Daytime; Midnight",Y,N,正式的士站前 車尾為隊頭第一輛 常有警方執法,22.2818036782,114.1575775219
,urban,蘭桂坊的士站,"PM; Midnight",N,Y,,22.2811756887,114.1559420844
,urban,帝景園,Daytime,N,Y,屋苑自設的士站,22.2756141252,114.1526370389
,urban,太古廣場二座,Daytime,N,Y,,22.2773636591,114.1647664242
,urban,太古廣場1座,"Daytime; Midnight",N,Y,,22.2775119787,114.1653531105
,urban,會展站的士站,Daytime,N,Y,,22.2812924800,114.1748455635
,cross-harbour,港灣道過海的士站,Daytime,N,Y,,22.2807024976,114.1750960588
,cross-harbour,馬師道非法過海站 (半夜),Midnight,Y,N,,22.2792473178,114.1796000300
,cross-harbour,駱克道過海的士站,"Daytime; Midnight",N,Y,,22.2782362727,114.1729198810
,cross-harbour,駱克道馬師道過海的士站,"Daytime; Midnight",N,Y,,22.2792366058,114.1788642001
,urban,會展舊翼的士站,Daytime,N,Y,,22.2812142002,114.1729511929
,urban,律敦治醫院的士站,Daytime,N,Y,,22.2758186635,114.1753869300
,urban,香港足球會,Daytime,N,N,,22.2756077201,114.1822887344
,cross-harbour,跑馬地非法過海站,"Daytime; Midnight",Y,N,,22.2697515688,114.1836409145
,urban,養和醫院的士站,Daytime,N,Y,,22.2695439214,114.1830575242
,urban,港安醫院,Daytime,N,Y,入閘有限時,22.2634216188,114.1840166575
,urban,合和中心 皇后大道東,Daytime,Y,N,,22.2749048501,114.1719681637
,urban,喜帖街 皇后大道東,Daytime,Y,N,,22.2749526420,114.1720176036
,urban,太古廣場三座,PM,N,N,,22.2766682051,114.1677509437
,urban,灣仔站 莊士敦道,Daytime,Y,N,,22.2766871571,114.1735543592
,urban,時代廣場的士站,"Daytime; Midnight",N,Y,,22.2786301435,114.1821601907
,cross-harbour,時代廣場過海的士站,"Daytime; Midnight",N,Y,,22.2787850551,114.1823464142
,urban,利園一期,Daytime,N,Y,,22.2782544006,114.1847491914
,urban,利園二期的士站,Daytime,N,Y,,22.2787652791,114.1851908541
,urban,邊寧頓街 渣甸街口,Daytime,Y,N,,22.2789737506,114.1860700596
,urban,Sogo 軒尼詩道,Midnight,Y,N,,22.2802311710,114.1845852158
,urban,百德新街的士站,"Daytime; Midnight",N,Y,,22.2807783054,114.1855179812
,cross-harbour,百德新街過海的士站,Daytime,N,Y,,22.2820077099,114.1850301746
,urban,天后的士站,"Daytime; Midnight",N,Y,,22.2832865543,114.1917671794
,cross-harbour,天后過海的士站,"Daytime; Midnight",N,Y,,22.2841863597,114.1915331641
,urban,城市花園,Daytime,N,N,,22.2908426128,114.1942985002
,cross-harbour,北角道過海的士站,"Daytime; Midnight",N,Y,,22.2917465382,114.1964713821
,urban,明園西街,Daytime,Y,N,,22.2907305491,114.1987085357
,urban,北角站,Midnight,Y,N,,22.2909777484,114.2003210991
,urban,英皇道K11,"PM; Midnight",Y,N,,22.2916023387,114.2075162467
,urban,太古坊,Daytime,Y,N,,22.2874938863,114.2106738057
,cross-harbour,太古坊非法過海站,"Daytime; Midnight",Y,N,車尾為第一輛 倒車排隊,22.2875647501,114.2116131630
,urban,太古坊一座,"PM; Midnight",N,Y,,22.2876603339,114.2124981365
,urban,港島東中心,Daytime,N,Y,,22.2864193934,114.2133600380
,urban,太古城中心的士站,"Daytime; Midnight",N,Y,,22.2861276982,114.2174668424
,urban,康怡廣場 (東行),Daytime,Y,N,康山道東行巴士站尾,22.2847367902,114.2159638706
,urban,康怡廣場 西行,Daytime,Y,N,康安街落山方向 燈位禁區前,22.2841056080,114.2154480481
,cross-harbour,太安樓非法過海站,"Daytime; Midnight",Y,N,,22.2831992105,114.2216923024
,urban,嘉亨灣,Daytime,Y,N,排隊看嘉亨灣的士燈,22.2848719258,114.2236385848
,urban,興東邨,Daytime,Y,N,巴士站最前,22.2806283379,114.2197130600
,urban,愛蝶灣的士站,Daytime,N,Y,,22.2817456787,114.2287704422
,urban,東旭苑,Daytime,Y,N,巴士站前,22.2827740278,114.2270515831
,urban,望隆街,"Daytime; Midnight",Y,N,,22.2790198944,114.2294708402
,urban,東區醫院,Daytime,N,Y,,22.2692027863,114.2363512207
,urban,柴灣站的士站,"Daytime; Midnight",N,Y,,22.2642225445,114.2366280839
,urban,藍灣半島的士站,Daytime,N,Y,,22.2666764095,114.2505569403
,urban,藍灣半島的士站,Daytime,N,Y,,22.2663698824,114.2513018342
,urban,杏花邨的士站,"Daytime; Midnight",N,Y,,22.2763435500,114.2405832727
,cross-harbour,杏花邨過海的士站,Daytime,N,Y,,22.2782222647,114.2389632933
,urban,明報工業中心,PM,Y,N,,22.2687034438,114.2450361560
,urban,石澳泳灘,Daytime,N,N,,22.2298717301,114.2511419786
,urban,大浪灣,Daytime,N,N,,22.2446344722,114.2455701065
,urban,赤柱的士站,"Daytime; Midnight",N,Y,,22.2196871191,114.2127387438
,urban,赤柱廣場,"Daytime; Midnight",Y,N,迴旋處,22.2198041268,114.2097459843
,urban,淺水灣泳灘,Daytime,N,Y,,22.2367273906,114.1975640029
,urban,淺水灣,"Daytime; Midnight",N,Y,,22.2386225853,114.1947451070
,urban,海洋公園的士站,Daytime,N,Y,,22.2483803655,114.1749675152
,cross-harbour,海洋公園過海的士站,Daytime,N,Y,,22.2484215654,114.1747318519
,urban,港怡醫院,Daytime,N,Y,,22.2516648202,114.1763452393
,urban,水上樂園的士站,PM,N,Y,,22.2361110404,114.1675729602
,urban,深灣遊艇會,Daytime,N,Y,,22.2437082988,114.1642077538
,urban,利東邨的士站,"Daytime; Midnight",N,Y,,22.2411456661,114.1562232165
,urban,鴨脷洲邨的士站,"Daytime; Midnight",N,Y,,22.2442076414,114.1508680557
,urban,海怡半島一期,"Daytime; Midnight",N,N,,22.2444301208,114.1469862027
,urban,海怡半島三期,"Daytime; Midnight",N,N,,22.2429469250,114.1481612234
,urban,海怡半島二期,"Daytime; Midnight",N,N,,22.2435715152,114.1461061732
,urban,新海怡廣場的士站,Daytime,N,Y,,22.2392521195,114.1525860908
,urban,香港仔的士站,"Daytime; Midnight",N,Y,,22.2480721904,114.1539489829
,urban,石排灣邨口,"Daytime; Midnight",Y,N,,22.2482715978,114.1576685084
,urban,華貴邨的士站,"Daytime; Midnight",N,Y,,22.2497877535,114.1397168954
,urban,華富邨,"Daytime; Midnight",N,N,出閘後只能停2部車,22.2510303420,114.1367949997
,urban,貝沙灣四至六期,Daytime,N,Y,,22.2540296935,114.1335039530
,urban,貝沙灣一至二期,Daytime,Y,N,停巴士站等候的士燈,22.2581892336,114.1329732986
,urban,數碼港戲院,Daytime,Y,N,,22.2613352567,114.1297564117
,urban,數碼港 (南區方向),Daytime,Y,N,,22.2614489684,114.1301222667
,urban,瑪麗醫院的士站,Daytime,N,Y,,22.2704008789,114.1309215444
,urban,中環中心,Daytime,N,N,,22.2841550478,114.1544186616
,cross-harbour,中環中心非法過海站,Daytime,Y,N,,22.2841023120,114.1543725177
,cross-harbour,文咸東街非法過海站,Daytime,Y,N,,22.2856036357,114.1523734994
,urban,荷李活動些利街,Daytime,Y,N,,22.2821725095,114.1534100885
,urban,花園道三號,"Daytime; Midnight",N,Y,,22.2788633349,114.1611144666
,urban,尖沙咀碼頭的士站,Daytime,N,Y,,22.2942391312,114.1692275475
,urban,廣東道 MacroPolo酒店,Daytime,Y,N,,22.2952996161,114.1693898750
,urban,廣東道的士站,Daytime,N,Y,,22.2963460932,114.1692333155
,urban,太子酒店,Daytime,N,Y,,22.2992350290,114.1680154469
,urban,大潭道,Daytime,N,Y,,22.2279757115,114.2174404744
,urban,鴨脷洲南灣,Daytime,N,Y,,22.2411629700,114.1590569444
,urban,One Island South,PM,Y,N,,22.2486152049,114.1694080030
,urban,黃埔AEON,Daytime,N,Y,,22.3032561375,114.1900030004
,urban,黃埔聚寶坊,Daytime,N,Y,,22.3048448050,114.1898794008
,urban,紅磡站的士站,Daytime,N,Y,,22.3022541564,114.1825375817
,cross-harbour,紅磡站過海的士站,Daytime,N,Y,,22.3030435461,114.1826447014
,urban,海灣軒,Daytime,N,Y,,22.3001875703,114.1856160369
,urban,The One,Daytime,Y,N,,22.2964128370,114.1716665806
,urban,麼地道 棉登經,"Daytime; Midnight",Y,N,,22.2971775068,114.1745423324
,cross-harbour,麼地廣場過海的士站,"Daytime; Midnight",N,Y,,22.2985717108,114.1772763566
,urban,九龍香格里接大酒店的士站,"Daytime; Midnight",N,Y,,22.2975746737,114.1770266853
,cross-harbour,天文臺道過海的士站,"Daytime; Midnight",N,Y,,22.3009893200,114.1758714406
,urban,諾士佛臺,Midnight,Y,N,,22.3006415930,114.1731637843
,urban,美麗華商場,Daytime,Y,N,,22.3005097533,114.1725144742
,urban,厚福街,"Daytime; Midnight",Y,N,路口,22.2993874685,114.1735576552
,urban,金域假日酒店,Daytime,N,Y,酒店內 一架,22.2969517315,114.1731456564
,urban,中港城的士站,Daytime,N,Y,地底正式的士站,22.3004850334,114.1677962636
,urban,中港城 廣東道,Daytime,Y,N,大馬路旁,22.3005773211,114.1680813668
,urban,高鐵站的士站,Daytime,N,Y,,22.3032487216,114.1641739699
,cross-harbour,高鐵站過海的士站,Daytime,N,Y,,22.3032240016,114.1642118738
,urban,西九文化區的士站,Daytime,N,Y,,22.3016155582,114.1561811926
,urban,九龍站的士站,Daytime,N,Y,地面交通交匯處入,22.3042737746,114.1608062914
,cross-harbour,ICC過海站,Daytime,N,Y,ICC8樓平台 收雙程隧道費,22.3033171134,114.1606398439
,urban,ICC的士站,Daytime,N,Y,ICC8樓平台,22.3032149376,114.1606019400
,urban,麗思卡爾頓酒店,Daytime,N,Y,一架的士,22.3034934489,114.1599345019
,urban,海逸豪園,Daytime,N,Y,,22.3078686704,114.1927269307
,urban,伊利沙伯醫院的士站,Daytime,N,Y,,22.3089909552,114.1751576526
,urban,君頤峰的士站,Daytime,N,Y,,22.3109240537,114.1766177765
,urban,愛民邨的士站,"Daytime; Midnight",N,Y,,22.3137998056,114.1777697252
,cross-harbour,彌敦道南行 咸美頓街,Midnight,Y,N,燈位前,22.3147424589,114.1704031862
,cross-harbour,佐敦道東行,Midnight,Y,N,,22.3053357016,114.1711052322
,urban,赤柱大街,"Daytime; Midnight",Y,N,,22.2185143644,114.2115725811
,urban,滙豐總行,PM,N,N,,22.2799409178,114.1593360736
,urban,太子大廈,Midnight,Y,N,,22.2813301779,114.1588878189
,urban,銅鑼灣駱克道的士站,Daytime,N,Y,,22.2806891077,114.1830672062
,urban,勵德邨,Daytime,Y,N,巴士站尾,22.2782138187,114.1941878785
,urban,北海街的士站,Daytime,N,Y,,22.3077590787,114.1712082319
,urban,寧波街的士站,Daytime,N,Y,,22.3065445062,114.1712922796
,urban,駿發花園,Daytime,N,N,,22.3099789284,114.1690707819
,urban,奧海城二期的士站,Daytime,N,Y,,22.3175860748,114.1621310737
,cross-harbour,奧海城二期過海的士站,Daytime,N,Y,,22.3176618826,114.1620618579
,urban,大角咀滙豐中心,PM,N,N,,22.3190939905,114.1611389805
,urban,一號銀海,Daytime,Y,N,等待的士燈,22.3181711131,114.1564619698
,urban,浪澄灣,Daytime,Y,N,等待的士燈,22.3191302464,114.1565888654
,urban,奧海城一期的士站,Daytime,N,Y,,22.3185435601,114.1583522204
,urban,港灣豪庭,Daytime,Y,N,停迴旋處大門,22.3242555118,114.1600562476
,urban,朗豪坊的士站,"Daytime; Midnight",N,Y,,22.3188863431,114.1688103987
,urban,旺角東站的士站,Daytime,N,Y,,22.3218642706,114.1723766605
,urban,旺角中心的士站,"Daytime; Midnight",N,Y,,22.3199328201,114.1698123798
,urban,欽州街,"Daytime; Midnight",Y,N,,22.3324023767,114.1616679870
,urban,宇晴軒,Daytime,N,Y,,22.3338888685,114.1496788211
,urban,海麗邨的士站,"Daytime; Midnight",N,Y,,22.3323002010,114.1474177715
,urban,長沙灣廣場的士站,Daytime,N,Y,,22.3368733880,114.1488647114
,urban,長沙灣道 長荔街,"Daytime; Midnight",Y,N,,22.3370810354,114.1478034024
,urban,明愛醫院的士站,Daytime,N,Y,,22.3411383998,114.1533587946
,urban,南昌站,Daytime,Y,N,,22.3278835735,114.1539248810
,urban,南山邨的士站,Daytime,N,Y,,22.3328489834,114.1700950110
,urban,又一城的士站,Daytime,N,Y,地底，跟停車場入,22.3375902659,114.1743913348
,urban,九龍醫院的士站,Daytime,N,Y,,22.3239967766,114.1794053606
,urban,帝京酒店,Daytime,N,Y,平台,22.3242621038,114.1732121942
,urban,MOKO的士站,Daytime,N,Y,平台,22.3232304588,114.1726090279
,urban,九龍塘站的士站,Daytime,N,Y,,22.3367394884,114.1763565692
,urban,浸會醫院的士站,Daytime,N,Y,金城道入,22.3396762160,114.1797135357
,urban,樂富富美街,Daytime,Y,N,橋底,22.3406880851,114.1870067390
,urban,樂富的士站,Daytime,N,Y,,22.3385951311,114.1869572991
,urban,樂富商場,Daytime,N,Y,,22.3378996771,114.1881867036
,urban,正德街,Daytime,Y,N,,22.3411742437,114.1931290416
,urban,衙前圍道,"Daytime; Midnight",Y,N,,22.3288208709,114.1911118953
,urban,法國醫院,Daytime,Y,N,隊頭在迴旋處,22.3259995029,114.1843954904
,urban,富豪東方酒店的士站,Daytime,N,Y,,22.3301211392,114.1927986185
,urban,何文田邨,"Daytime; Midnight",Y,N,閘口,22.3169492276,114.1820199051
,urban,何文田廣場的士站,Daytime,N,Y,要入閘 留意免費時間,22.3160560141,114.1820314411
,urban,庇利街的士站,Daytime,N,Y,,22.3123348407,114.1888739177
,cross-harbour,新圍街過海的士站,"Daytime; Midnight",N,Y,,22.3120035937,114.1863360049
,urban,翔龍灣的士站,Daytime,N,Y,,22.3191031575,114.1930169779
,urban,Airside的士站,Daytime,N,Y,,22.3309983877,114.1977632044
,urban,沐寧街的士站,Daytime,N,Y,,22.3287323941,114.2010114031
,urban,德朗邨閘口,"Daytime; Midnight",Y,N,,22.3311977951,114.2041030424
,urban,麗晶花園閘口,Daytime,Y,N,,22.3291954808,114.2063195961
,cross-harbour,宏泰道過海的士站,Daytime,N,Y,,22.3202468662,114.2097639063
,urban,美羅中心,PM,Y,N,,22.3245959259,114.2103687205
,urban,兒童醫院,Daytime,N,Y,,22.3159752624,114.2090684522
,urban,啓德郵輪碼頭的士站,Daytime,N,Y,,22.3065668571,114.2130203450
,urban,德福的士站,Daytime,N,Y,,22.3212282474,114.2131612486
,urban,德福花園,Midnight,Y,N,,22.3219319414,114.2129906811
,urban,海濱道83,PM,Y,N,,22.3155179437,114.2143288533
,cross-harbour,創紀一期過海的士站,Daytime,N,Y,,22.3131019825,114.2216245286
,urban,創紀一期的士站,"Daytime; Midnight",N,Y,,22.3131530704,114.2214959849
,urban,APM的士站,Daytime,N,Y,,22.3121856971,114.2248859113
,urban,裕民坊的士站,"Daytime; Midnight",N,Y,,22.3136408770,114.2248315274
,urban,物華街,Midnight,Y,N,,22.3149988252,114.2243008729
,urban,牛頭角道,"PM; Midnight",Y,N,,22.3148884095,114.2217267043
,urban,牛頭角下邨,"Daytime; Midnight",Y,N,過馬路燈位,22.3213930470,114.2159892086
,urban,福淘街的士站,Daytime,N,Y,,22.3236804645,114.2157370653
,urban,淘大,Daytime,Y,N,,22.3258607623,114.2146279644
,urban,淘大的士站,"Daytime; Midnight",N,Y,,22.3235041290,114.2171395093
,urban,彩盈邨,"Daytime; Midnight",Y,N,巴士站,22.3283195713,114.2155112899
,urban,啓業邨,Daytime,Y,N,閘口,22.3294171362,114.2082568146
,urban,巧明街 駿業街,"PM; Midnight",Y,N,,22.3121626252,114.2237743384
,urban,駱駝漆大廈,Midnight,Y,N,,22.3104651900,114.2247367677
,urban,海濱匯,PM,Y,N,,22.3166056206,114.2141879497
,cross-harbour,麗港城過海的士站,Daytime,N,Y,,22.3052278609,114.2292687548
,urban,平田的士站,Daytime,N,Y,,22.3063056499,114.2370580047
,urban,興田邨,Daytime,Y,N,,22.3129025751,114.2393487182
,urban,坪石的士站,Daytime,N,Y,,22.3337563078,114.2101116333
,urban,坪石,Midnight,Y,N,,22.3340216351,114.2091722760
,urban,彩雲的士站,Daytime,N,Y,,22.3335140525,114.2150589152
,urban,彩輝邨的士站,Daytime,N,Y,,22.3348950726,114.2180615627
,urban,豐盛街的士站,Daytime,N,Y,,22.3375878969,114.2145991245
,urban,彩德商場,Daytime,Y,N,巴士站,22.3295127199,114.2127270018
,urban,順利紀律部隊宿舍的士站,Daytime,N,Y,,22.3318314493,114.2215470728
,urban,順利的士站,Daytime,N,Y,,22.3320390967,114.2255978453
,urban,香港站 港景街,Daytime,Y,N,,22.2847828310,114.1574334630
,cross-harbour,謝斐道過海的士站,Daytime,N,Y,,22.2808566882,114.1820615170
,urban,波斯富街,"Daytime; Midnight",Y,N,,22.2810952355,114.1822048926
,urban,順天閘口對面,Daytime,Y,N,,22.3261460715,114.2281382300
,urban,順天邨閘口,Daytime,Y,N,,22.3270495849,114.2257391609
,urban,聯合醫院的士站,Daytime,N,Y,,22.3228991087,114.2278576588
,urban,樂華邨,Daytime,Y,N,巴士總站旁 車頭向振華道,22.3206767870,114.2206592153
,urban,秀茂坪的士站,"Daytime; Midnight",N,Y,,22.3187140246,114.2318820634
,urban,寶逹邨的士站,Daytime,N,Y,,22.3174607242,114.2364280585
,urban,安逹邨的士站,Daytime,N,Y,,22.3210352260,114.2346951914
,urban,安泰邨的士站,Daytime,N,Y,,22.3280383821,114.2290689354
,urban,寶佩苑,Daytime,Y,N,大迴旋處口,22.3168878398,114.2290584294
,urban,翠屏的士站,Daytime,N,Y,,22.3156938672,114.2293043927
,urban,翠屏南邨,Daytime,Y,N,迴旋處路口,22.3132812020,114.2298284552
,urban,廣田邨口,Daytime,Y,N,的士站沒人用,22.3024612888,114.2402343097
,urban,啟田道,Daytime,Y,N,上山方向，雙黃線過馬路口,22.3081159727,114.2347118774
,urban,麗港城商場,Daytime,Y,N,巴士站,22.3068119964,114.2283588554
,urban,鯉魚門,"Daytime; Midnight",Y,N,轉彎位,22.2922099339,114.2383926749
,urban,鯉魚門的士站,"Daytime; Midnight",N,Y,正式站,22.2924892691,114.2380218759
,urban,大本型的士站,Daytime,N,Y,,22.2968152568,114.2389142654
,urban,油麗邨口,Daytime,Y,N,邨口路口,22.3017048589,114.2364731723
,urban,Mikiki,Daytime,Y,N,路口,22.3341225748,114.1970967963
,urban,大有街,Midnight,Y,N,沿大有街北行,22.3383941786,114.1989446110
,urban,大有街,Midnight,Y,N,沿大有街北行,22.3373707736,114.1981696412
,urban,竹園街市,Daytime,Y,N,竹園道西行，過馬路燼位,22.3451353035,114.1937151099
,urban,龍蟠苑,Daytime,N,Y,,22.3416052975,114.2011879446
,urban,鳳德邨,Daytime,N,N,閘內，留意入閘時間,22.3435272721,114.2010000732
,urban,彩明商場,Daytime,Y,N,花槽前,22.3056860036,114.2519107685
,urban,彩明的士站,"Daytime; Midnight",N,Y,,22.3063880496,114.2530157493
,urban,唐明苑的士站,"Daytime; Midnight",N,Y,,22.3080541729,114.2571242016
,urban,九龍東皇冠假日酒店,Daytime,N,N,酒店門外路口,22.3086919471,114.2596901303
,urban,將軍澳廣場,"Daytime; Midnight",Y,N,,22.3095966965,114.2619717799
,urban,尚德的士站,"Daytime; Midnight",N,Y,,22.3111268602,114.2596950743
,urban,寶盈花園,Daytime,Y,N,閘口,22.3067217687,114.2616306448
,urban,將軍澳Donki,"Daytime; Midnight",Y,N,,22.3029000675,114.2615465971
,urban,首都的士站,Daytime,N,Y,,22.2964531099,114.2700205890
,urban,坑口站,Daytime,N,Y,,22.3160312942,114.2647206360
,NT,坑口站,Daytime,N,Y,,22.3157840949,114.2650518831
,urban,坑口站A出口,Daytime,N,Y,,22.3160090463,114.2638752145
,urban,厚德商場,Daytime,Y,N,巴士站尾,22.3170868352,114.2657662891
,urban,厚德村口,Midnight,Y,N,,22.3168841318,114.2645204046
,urban,清水灣半島,Daytime,N,N,閘口,22.3075399984,114.2672618448
,urban,景林的士站,Daytime,N,Y,閘內，留意入閘時間,22.3225425237,114.2600460973
,urban,新都城二期的士站,Daytime,N,Y,室內總站,22.3229775945,114.2583651421
,urban,寶琳站的士站,Daytime,N,Y,,22.3225425237,114.2575642164
,urban,慧安園,Daytime,N,Y,,22.3243223586,114.2543407376
,urban,科大北閘,Daytime,N,Y,,22.3387093578,114.2623524668
,urban,清水灣二灘,Daytime,N,Y,,22.2870422326,114.2867874993
,NT,清水灣二灘,Daytime,N,Y,,22.2871386403,114.2869104810
,urban,清水灣郊野公園,PM,N,N,,22.2915814297,114.3016077152
,urban,西貢廟口,"Daytime; Midnight",N,N,停車場入少少,22.3814383743,114.2707201630
,urban,西貢碼頭,"Daytime; Midnight",N,Y,,22.3818363652,114.2739288099
,NT,西貢碼頭,"Daytime; Midnight",N,Y,,22.3817646774,114.2736914985
,urban,西貢東壩,Daytime,N,N,迴旋處反方向排，亭前為頭位,22.3654748617,114.3740420533
,NT,西貢東壩,Daytime,N,N,迴旋處反方向排，亭前為頭位,22.3655094696,114.3740766612
,urban,烏溪沙站,Daytime,N,Y,,22.4288349249,114.2445606564
,NT,烏溪沙站,Daytime,N,Y,,22.4289028494,114.2445384266
,urban,利安的士站,"Daytime; Midnight",N,Y,,22.4255066247,114.2406259757
,NT,利安的士站,"Daytime; Midnight",N,Y,,22.4256041890,114.2408939687
,NT,錦英苑的士站,"Daytime; Midnight",N,Y,,22.4232811713,114.2370790822
,urban,錦英苑的士站,"Daytime; Midnight",N,Y,,22.4237047731,114.2371914663
,urban,慈正邨閘口,Daytime,Y,N,,22.3501264916,114.2012100095
,urban,秀茂坪南邨,Daytime,Y,N,閘口,22.3153046912,114.2362442284
,urban,瑪嘉烈K座,Daytime,N,Y,,22.3413802868,114.1345896662
,urban,瑪嘉烈醫院的士站,Daytime,N,Y,,22.3405651929,114.1344389973
,urban,大連排道工業街口,Midnight,N,N,路口7-11門口,22.3628172570,114.1336560131
,urban,大連排道KCC,Daytime,N,Y,,22.3618675491,114.1329631833
,urban,葵芳邨,"Daytime; Midnight",Y,N,閘口,22.3597260751,114.1283887774
,urban,葵芳站的士站,Daytime,N,Y,,22.3560556824,114.1277218824
,urban,葵芳新都會的士站,Daytime,N,Y,,22.3570683749,114.1272723457
,urban,葵芳新都會,Daytime,Y,N,巴士站,22.3578143093,114.1262003737
,urban,葵涌廣場,Daytime,Y,N,,22.3583033657,114.1279392407
,urban,葵盛東商場,Daytime,Y,N,閘口,22.3635471366,114.1267882293
,urban,荃灣西站的士站,Daytime,N,Y,,22.3670643904,114.1109013078
,urban,如心廣場的士站,Daytime,N,Y,跟酒店牌入,22.3687785576,114.1127735538
,urban,禾笛街的士站,Daytime,N,Y,,22.3693960530,114.1140579442
,urban,海濱花園,Daytime,Y,N,迴旋處,22.3614130725,114.1126747545
,urban,荃灣有線,Midnight,N,N,有線大樓門口,22.3725576294,114.1069789770
,urban,荃灣TML,PM,N,N,TML門口,22.3733183837,114.1059020650
,urban,南豐紗廠,Daytime,Y,N,,22.3744743351,114.1101652532
,urban,荃灣港安醫院,Daytime,N,Y,,22.3764404405,114.1046917740
,urban,荃威花園,Daytime,Y,N,踏口,22.3791030806,114.1040890985
,urban,荃灣中心,Daytime,Y,N,閘口出口,22.3787029436,114.1074433335
,urban,愉景新城 美環街,Daytime,Y,N,燈位禁區前,22.3768232876,114.1107728687
,urban,愉景新城的士站,Daytime,N,Y,,22.3764206806,114.1126130050
,urban,荃灣站,Daytime,N,Y,,22.3726070290,114.1189880275
,NT,荃灣站,Daytime,N,Y,,22.3726169090,114.1189336879
,urban,葵涌邨橋底,"Daytime; Midnight",Y,N,橋底,22.3682746813,114.1272427059
,urban,石頭街,Daytime,Y,N,路口,22.3664073753,114.1240761895
,urban,石蔭商場,Daytime,Y,N,,22.3717450055,114.1385305218
,urban,安蔭邨的士站,Daytime,N,Y,,22.3698431196,114.1421082901
,urban,石籬一邨的士站,Daytime,N,Y,,22.3623887152,114.1383860279
,urban,石籬商場的士站,Daytime,N,Y,,22.3656737907,114.1386811907
,urban,麗晶中心,PM,Y,N,,22.3670433955,114.1383242783
,urban,雍雅軒,"Daytime; Midnight",Y,N,,22.3661023325,114.1370201281
,urban,葵興站的士站,Daytime,N,Y,,22.3632322139,114.1315836986
,urban,悅來酒店,Daytime,Y,N,,22.3689625712,114.1212468256
,urban,街市街麥當勞,"Daytime; Midnight",Y,N,,22.3720611631,114.1163859019
,urban,深井碧堤,Daytime,N,Y,,22.3671631896,114.0612386230
,urban,海韻花園,"Daytime; Midnight",Y,N,巴士站,22.3677121430,114.0615449007
,urban,黃金海岸的士站,"Daytime; Midnight",N,N,,22.3716875784,113.9930572512
,NT,三聖恒福花園的士站,Daytime,N,Y,,22.3821948801,113.9776149263
,urban,黃金海岸酒店,Daytime,N,N,,22.3723939931,113.9895819871
,urban,顯徑迴旋處,Daytime,Y,N,閘口,22.3623090583,114.1704575038
,urban,仁安醫院的士站,Daytime,N,Y,,22.3608122495,114.1752974327
,urban,隆亨山邊閘口,Daytime,N,N,,22.3658114922,114.1769202106
,urban,大圍的士站,Daytime,N,Y,,22.3735919342,114.1785158187
,urban,大圍站室內的士站,Daytime,N,Y,最尾一條坑,22.3722334443,114.1788122165
,urban,沙田市中心的士站,"Daytime; Midnight",N,Y,,22.3821183106,114.1885143042
,urban,新城市廣場的士站,Daytime,N,Y,,22.3817675733,114.1887563624
,urban,新城市廣場三期的士站,Daytime,N,Y,,22.3798360477,114.1872891933
,urban,沙田大會堂的士站,Daytime,N,Y,,22.3821281906,114.1898925539
,urban,沙田廣場,Daytime,Y,N,,22.3831557029,114.1894800670
,urban,美田邨,"Daytime; Midnight",Y,N,閘口,22.3766003718,114.1709897848
,urban,美林邨的士站,Daytime,N,Y,,22.3776970436,114.1752233333
,urban,新翠的士站,Daytime,N,Y,閘內，留意入閘時間,22.3704328277,114.1820651823
,urban,秦石的士站,Daytime,N,Y,,22.3729225692,114.1858541340
,urban,沙角邨,"Daytime; Midnight",Y,N,路口,22.3766670613,114.1939161539
,urban,愉翠苑,Daytime,Y,N,閘口,22.3822751545,114.2044950851
,urban,威爾斯親王醫院的士站,Daytime,N,Y,平台,22.3796792038,114.2019065444
,NT,威爾斯親王醫院的士站,Daytime,N,Y,平台,22.3796569740,114.2019608840
,urban,威爾斯親王醫院急症室,Daytime,Y,N,平台,22.3810228738,114.2018386199
,urban,麗豪酒店,Daytime,Y,N,,22.3821985850,114.1968159123
,urban,富豪花園的士站,Daytime,N,Y,入閘再出閘,22.3854243810,114.1991895646
,urban,第一城,Daytime,N,N,,22.3872669873,114.2032971440
,urban,廣源閘口,Daytime,Y,N,,22.3816206094,114.2138834851
,urban,廣源的士站,Daytime,N,Y,,22.3809833541,114.2163781665
,urban,禾輋的士站,"Daytime; Midnight",N,Y,,22.3877362838,114.1946373885
,urban,沙田娛樂城的士站,Daytime,N,Y,,22.3839004024,114.1920562578
,urban,穗禾苑的士站,Daytime,N,Y,,22.3927589913,114.1943903904
,urban,駿洋邨,"Daytime; Midnight",Y,N,,22.3987968613,114.1898394493
,urban,御龍山的士站,Daytime,N,Y,,22.3957266742,114.1989907311
,urban,駿景園的士站,Daytime,N,Y,,22.3995897254,114.2007048983
,urban,京瑞廣場,Daytime,Y,N,路口,22.3886896967,114.2081840026
,urban,京瑞廣場的士站,Daytime,N,Y,,22.3883685990,114.2078629050
,NT,富安花園,Daytime,N,Y,,22.4054608716,114.2236213875
,urban,富安花園,Daytime,N,Y,,22.4054905114,114.2237597065
,urban,富安花園,Midnight,Y,N,路口,22.4053126727,114.2231323311
,urban,錦泰,Daytime,Y,N,巴士站,22.4079926028,114.2201881131
,urban,耀安的士站,Daytime,N,Y,,22.4193088234,114.2298939057
,NT,耀安的士站,Daytime,N,Y,,22.4191803844,114.2298939057
,urban,新田圍的士站,Daytime,N,Y,,22.3696029139,114.1873126581
,urban,頌安的士站,Daytime,N,Y,,22.4224395251,114.2268311286
,NT,頌安的士站,Daytime,N,Y,,22.4224074153,114.2267891389
,urban,新港城的士站,Daytime,N,Y,,22.4239042241,114.2320650195
,NT,新港城的士站,Daytime,N,Y,,22.4239832636,114.2320427897
,urban,沙田馬場會員的士站,Daytime,N,Y,上一樓平台,22.4035355210,114.2065673996
,urban,沙田馬場看台的士站,Daytime,N,Y,,22.4017867740,114.2054657878
,urban,大學站的士站,Daytime,N,Y,,22.4129782606,114.2107046188
,NT,大學站的士站,Daytime,N,Y,,22.4129239210,114.2106626291
,NT,科學園的士站,Daytime,N,Y,,22.4250762304,114.2120211190
,urban,科學園的士站,Daytime,N,Y,,22.4251503299,114.2119124398
,NT,廣進街,Daytime,N,Y,,22.4461871630,114.1733702296
,urban,廣福邨的士站,"Daytime; Midnight",N,Y,,22.4486423247,114.1747361294
,NT,廣福邨的士站,"Daytime; Midnight",N,Y,,22.4487213641,114.1744916012
,urban,翠和里,"Daytime; Midnight",Y,N,路口,22.4524238665,114.1639102001
,urban,廣福道,"Daytime; Midnight",Y,N,,22.4483928566,114.1677090318
,urban,大埔火車站,Daytime,N,Y,,22.4441024986,114.1711954108
,NT,大埔火車站,Daytime,N,Y,,22.4441654831,114.1711497161
,NT,寶鄉街,Daytime,Y,N,,22.4482557726,114.1665283806
,NT,大埔中心的士站,"Daytime; Midnight",N,Y,,22.4520447244,114.1696924270
,urban,大埔中心的士站,"Daytime; Midnight",N,Y,,22.4525708304,114.1686278649
,urban,大埔中心,"Daytime; Midnight",Y,N,避車處,22.4528400584,114.1677460815
,NT,太和邨,Daytime,N,Y,,22.4516248275,114.1623071821
,NT,太和火車站,Daytime,N,Y,,22.4510270920,114.1604868056
,urban,太和火車站,Daytime,N,Y,,22.4507726839,114.1607066340
,NT,太和火車站,Daytime,N,Y,,22.4505083958,114.1610326716
,urban,長發的士站,"Daytime; Midnight",N,Y,,22.3614562972,114.1033931812
,urban,長安邨 船廠,Daytime,N,N,閘口,22.3622862110,114.1008342803
,urban,青衣城的士站,Daytime,N,Y,,22.3596285108,114.1067869359
,urban,青衣站的士站,Daytime,N,Y,機鐵站入面,22.3585639487,114.1071944829
,NT,青衣站的士站,Daytime,N,Y,機鐵站入面,22.3586281682,114.1072932821
,urban,宏福花園,Daytime,Y,N,燈位前,22.3548688563,114.1073105720
,urban,偉景花園的士站,Daytime,N,Y,,22.3555481012,114.1038204880
,urban,青怡花園,Daytime,Y,N,閘口,22.3538364040,114.1060582913
,urban,青衣碼頭的士站,Daytime,N,Y,,22.3537190798,114.1093124921
,urban,青衣碼頭太興,"Daytime; Midnight",Y,N,,22.3535535911,114.1093495418
,urban,翠怡花園,Daytime,Y,N,,22.3532152036,114.1085912575
,urban,長亨的士站,Daytime,N,Y,,22.3556604854,114.0975257400
,urban,長康邨的士站,Daytime,N,Y,,22.3496312603,114.0986075919
,urban,長青閘口,Daytime,Y,N,,22.3452754478,114.1078403831
,urban,青松樓閘口,Daytime,Y,N,,22.3477141429,114.1076419612
,urban,藍澄灣,Daytime,N,N,,22.3431496170,114.1099176376
,urban,青楊樓路口,Daytime,Y,N,,22.3500079325,114.1076814809
,NT,運頭塘的士站,"Daytime; Midnight",N,Y,,22.4422755355,114.1665201473
,urban,富善邨的士站,"Daytime; Midnight",N,Y,,22.4542302464,114.1746068670
,NT,富善邨的士站,"Daytime; Midnight",N,Y,,22.4541857867,114.1746142770
,NT,富亨邨的士站,"Daytime; Midnight",N,Y,,22.4583094210,114.1720319112
,urban,富亨邨的士站,"Daytime; Midnight",N,Y,,22.4584946696,114.1719911565
,NT,那打素醫院,Daytime,N,N,,22.4587169680,114.1744747230
,NT,大尾篤的士站,Daytime,N,Y,,22.4724154859,114.2326724292
,NT,花都麥當勞,"Daytime; Midnight",Y,N,閘口,22.4853291671,114.1406687025
,urban,花都麥當勞,"Daytime; Midnight",Y,N,閘口,22.4853933866,114.1406390627
,NT,華明的士站,Daytime,N,Y,,22.4842757199,114.1417505544
,urban,牽晴間,Midnight,Y,N,巴士站,22.4865913277,114.1434276719
,NT,粉嶺火車站的士站,Daytime,N,Y,,22.4928156813,114.1382827003
,NT,祥華邨的士站,Daytime,N,Y,,22.4928181513,114.1414590966
,NT,綠悠軒的士站,Daytime,N,Y,,22.5010876496,114.1447688719
,NT,聯和墟街市的士站,Daytime,N,Y,,22.5000428474,114.1442477058
,NT,上水火車站的士站,Daytime,N,Y,,22.5015643561,114.1272295327
,urban,上水火車站的士站,Daytime,N,Y,,22.5016384555,114.1270368741
,NT,上水廣場的士站,Daytime,N,Y,,22.5021559167,114.1276494296
,NT,北區醫院,"Daytime; Midnight",N,N,,22.4965632608,114.1250892936
,NT,清河邨的士站,Daytime,N,Y,,22.4946959548,114.1278964277
,urban,清河邨的士站,Daytime,N,Y,,22.4945897456,114.1277284690
,NT,香園圍口岸的士站,Daytime,N,Y,,22.5525947932,114.1534162775
,urban,香園圍口岸的士站,Daytime,N,Y,,22.5526441928,114.1534236874
,NT,新田皇巴站的士站,"Daytime; Midnight",N,Y,,22.5027357448,114.0824043068
,urban,新田皇巴站的士站,"Daytime; Midnight",N,Y,,22.5026542354,114.0822808078
,urban,新田皇巴站,"Daytime; Midnight",Y,N,站外避車處,22.5030914222,114.0816855422
,urban,落馬洲支線的士站,Daytime,N,Y,需先前往洲頭候籌區取籌 關口開放時間0630-2230,22.5153746406,114.0668076081
,NT,落馬洲支線的士站,Daytime,N,Y,需先前往洲頭候籌區取籌 關口開放時間0630-2230,22.5153548808,114.0666791691
,urban,落馬洲 (光明頂),Midnight,N,Y,需先前往皇巴站取籌 關口開放時間2230-0630,22.5079190012,114.0752018405
,NT,落馬洲 (光明頂),Midnight,N,Y,需先前往皇巴站取籌 關口開放時間2230-0630,22.5079856907,114.0752734700
,NT,博愛醫院,"Daytime; Midnight",N,N,,22.4452753282,114.0415261116
,NT,元朗西鐵站的士站,Daytime,N,Y,,22.4462361510,114.0354968865
,urban,元朗西鐵站的士站,Daytime,N,Y,,22.4462929606,114.0355018265
,urban,裕景坊的士站,Daytime,N,Y,,22.4435648659,114.0281437513
,NT,裕景坊的士站,Daytime,N,Y,,22.4435698059,114.0280894117
,NT,西裕街的士站,Daytime,N,Y,,22.4423780398,114.0267198069
,NT,朗屏邨的士站,Daytime,N,Y,,22.4501411919,114.0229456751
,NT,天耀邨的士站,"Daytime; Midnight",N,Y,,22.4504684645,114.0032562168
,urban,天耀邨的士站,"Daytime; Midnight",N,Y,,22.4503993050,114.0032907966
,NT,天慈邨的士站,Daytime,N,Y,,22.4533904527,114.0071229730
,NT,天瑞邨的士站,Daytime,N,Y,,22.4554726472,113.9986484662
,urban,天瑞邨的士站,Daytime,N,Y,,22.4555146368,113.9987546754
,NT,銀座的士站,Daytime,N,Y,,22.4582896612,114.0036137467
,NT,天悅邨的士站,Daytime,N,Y,,22.4627924376,113.9984885349
,NT,天恩邨的士站,Daytime,N,Y,,22.4626343588,113.9963989305
,NT,天頌77的士站,Daytime,N,Y,,22.4603607407,113.9976487411
,NT,俊宏軒的士站,Daytime,N,Y,,22.4684647503,114.0008621872
,urban,俊宏軒的士站,Daytime,N,Y,,22.4684548704,114.0009609865
,NT,天恆邨的士站,Daytime,N,Y,,22.4694008733,113.9993270936
,NT,洪福邨的士站,"Daytime; Midnight",N,Y,,22.4362216107,113.9972066144
,NT,天恆閘口,Daytime,Y,N,,22.4703024166,114.0009832163
,NT,流浮山,Daytime,Y,N,,22.4675755569,113.9840576675
,urban,深圳灣口岸的士站,Daytime,N,Y,口岸開放時間0630-0000,22.5015279238,113.9448812895
,NT,深圳灣口岸的士站,Daytime,N,Y,口岸開放時間0630-0000,22.5015229839,113.9447923702
,NT,天平邨的士站,Daytime,N,Y,,22.5029580432,114.1348278136
,NT,皇后山的士站,Daytime,N,Y,,22.5038694664,114.1568625193
,NT,大欖隧道轉車站,Daytime,Y,N,,22.4215375701,114.0640924808
,NT,錦上路站的士站,Daytime,N,Y,,22.4343641845,114.0651150532
,NT,欣田邨,"Daytime; Midnight",Y,N,巴士站,22.4143968534,113.9770305698
,NT,寶田邨的士站,Daytime,N,Y,,22.4102769241,113.9670493743
,NT,屯門醫院的士站,"Daytime; Midnight",N,Y,,22.4083157587,113.9764476542
,NT,建生邨的士站,Daytime,N,Y,,22.4072339067,113.9691241588
,NT,良景的士站,Daytime,N,Y,,22.4064583325,113.9638285183
,NT,富泰閘口,Daytime,N,N,,22.4126975060,113.9841910465
,urban,田景紅的站,Daytime,N,Y,,22.4050529130,113.9655649153
,NT,山景的士站,Daytime,N,Y,閘內，留意入閘時間,22.3970625226,113.9655562704
,NT,大興的士站,Daytime,N,Y,,22.4029250239,113.9703208649
,urban,石排頭路德雅,Midnight,N,N,,22.4007909598,113.9692069032
,NT,龍門居富健花園,"Daytime; Midnight",Y,N,,22.3843235925,113.9653531144
,urban,龍門居紅的站,Daytime,N,Y,,22.3849423229,113.9658150010
,NT,龍門居的士站,Daytime,N,Y,,22.3846138154,113.9658347608
,NT,新屯門中心的士站,Daytime,N,Y,,22.3807581741,113.9643453619
,NT,蝴蝶邨的士站,Daytime,N,Y,,22.3738866853,113.9638593930
,NT,屯門碼頭的士站,Daytime,N,Y,,22.3724923807,113.9674396313
,urban,屯門碼頭的士站,Daytime,N,Y,,22.3725072006,113.9674779161
,NT,兆麟的士站,Daytime,N,Y,,22.3849676402,113.9761395240
,urban,屯門市廣場紅的站,Daytime,N,Y,,22.3925727135,113.9756479977
,NT,屯門市廣場惖士站,Daytime,N,Y,,22.3929036911,113.9762753730
,NT,屯門市廣場惖士站,Daytime,N,Y,,22.3922195062,113.9764482717
,NT,屯盛街的士站,Daytime,N,Y,,22.3925356638,113.9780858695
,NT,屯利街的士站,Daytime,N,Y,,22.3913599526,113.9789997627
,NT,置樂的士站,Daytime,N,Y,,22.3875833507,113.9804768117
,NT,屯門站的士站,Daytime,N,Y,,22.3953045132,113.9737374669
,urban,屯門站的士站,Daytime,N,Y,,22.3953539128,113.9737547568
,urban,麗瑤的士站,Daytime,N,Y,,22.3529665588,114.1321028064
,urban,荔景站,Daytime,Y,N,巴士站頭,22.3480352405,114.1268096358
,urban,荔景站,Daytime,Y,N,小巴站尾,22.3480327706,114.1266762568
,urban,永得利廣場,PM,N,Y,大廈內設有的士站,22.3523305385,114.1242630848
,urban,葵涌嘉里中心,PM,N,Y,大廈內設有的士站,22.3628032605,114.1207260712
,urban,馬灣的士站,Daytime,N,Y,,22.3498037474,114.0609352269
,urban,馬灣 (入村),Daytime,N,N,,22.3532222019,114.0598089153
,NT,黃金泳灘,Daytime,Y,N,,22.3730400991,113.9885178367
,urban,屯隆街,Daytime,Y,N,,22.3936348056,113.9758443612
,NT,蝴蝶灣公園的士站,Daytime,N,Y,,22.3743343695,113.9584729807
,urban,港珠澳的士站,"Daytime; Midnight",N,Y,,22.3158353256,113.9518188503
,NT,港珠澳的士站,"Daytime; Midnight",N,Y,,22.3158600254,113.9516879413
,lantau,港珠澳的士站,"Daytime; Midnight",N,Y,,22.3164182412,113.9521498278
,urban,機場的士站,"Daytime; Midnight",N,Y,需先去南商用停車場取籌,22.3171271259,113.9358380694
,NT,機場的士站,"Daytime; Midnight",N,Y,,22.3171839355,113.9360208481
,lantau,機場的士站,"Daytime; Midnight",N,Y,,22.3172209852,113.9361097674
,urban,博覽館的士站,Daytime,N,Y,,22.3199577248,113.9428701070
,lantau,博覽館的士站,Daytime,N,Y,,22.3201726132,113.9439297291
,lantau,東涌纜車站的士站,Daytime,N,Y,,22.2900989287,113.9388760524
,urban,東涌纜車站的士站,Daytime,N,Y,,22.2901211405,113.9388044812
,lantau,東涌站的士站,"Daytime; Midnight",N,Y,,22.2892437759,113.9418317591
,urban,東涌站的士站,Daytime,N,Y,,22.2888957916,113.9413973958
,urban,東涌喜來登酒店,Daytime,N,N,,22.2956210194,113.9464295937
,urban,愉景灣酒店的士站,Daytime,N,Y,,22.3074845678,114.0161819279
,lantau,愉景灣社區會堂的士站,Daytime,N,Y,,22.3081015612,114.0158216038
,NT,迪士尼的士站,PM,N,Y,,22.3162051521,114.0450707914
,urban,迪士尼的士站,PM,N,Y,,22.3163705063,114.0450633875
,lantau,迪士尼的士站,PM,N,Y,,22.3160669456,114.0450510476
,urban,迪士尼樂園酒店的士站,Daytime,N,Y,,22.3087420003,114.0447820385
,lantau,梅窩碼頭的士站,"Daytime; Midnight",N,Y,,22.2649798947,114.0014370204
,lantau,大澳的士站,"Daytime; Midnight",N,Y,,22.2525348300,113.8624845610
,lantau,昂坪的士站,Daytime,N,Y,,22.2557172818,113.9026434253
,urban,逸東迴旋處,"Daytime; Midnight",N,N,閘內，留意入閘時間,22.2814816908,113.9361720789
,urban,荃灣廣場,Daytime,Y,N,海貴路轉出海盛路西行路口,22.3701066182,114.1112747968
,urban,海盛路的士站,Daytime,N,Y,,22.3700054313,114.1121435235
,urban,梨木樹的士站,Daytime,N,Y,,22.3777400602,114.1363617472
,urban,象山的士站,Daytime,N,Y,,22.3786075529,114.1312407022
,urban,石圍角,Daytime,Y,N,,22.3752128553,114.1236998093
,urban,四號櫃的士站,Daytime,N,Y,,22.3417520710,114.1274511290
,urban,三號櫃的士站,Daytime,N,Y,跟上落客/各類車輛進入ATL大廈內，入閘後左邊,22.3434500368,114.1244056497
,urban,觀海徑的士站,Daytime,N,Y,,22.2470830766,114.1586734614
,urban,富榮花園的士站,Daytime,N,Y,,22.3145574713,114.1643312905
,urban,廟街,"Daytime; Midnight",Y,N,,22.3054185655,114.1697238126
,urban,伊利沙伯醫院日間醫療中心的士站,Daytime,N,Y,,22.3084443010,114.1752224575
,urban,陽明山莊的士站,Daytime,N,Y,,22.2579952213,114.1995455700
