id,type,name,time,dangerous,legal,Remarks,lat,lng
,urban,企業廣場門口,Daytime,Y,N,,22.3216633800,114.2082438000
,cross-harbour,企業廣場對面 常悅道,PM,Y,N,,22.3215878700,114.2083520000
,urban,Megabox,Daytime,N,Y,,22.3202128200,114.2084564000
,urban,小西灣邨 燈位前,"Daytime; Midnight",N,N,,22.2626157800,114.2495768000
,urban,小西灣邨閘口,Daytime,Y,N,,22.2648513600,114.2477695000
,urban,嘉業街常安街口 發達中心門口 燈位前,Daytime,N,N,,22.2676156900,114.2435011000
,urban,翠灣邨巴士站,"Daytime; Midnight",N,N,,22.2685661100,114.2408775000
,urban,金鐘站的士站,Daytime,N,Y,,22.2791713700,114.1645805000
,urban,遮打道 (歷山大廈) 的士站,Daytime,N,Y,,22.2817369200,114.1587269000
,cross-harbour,遮打道 (歷山大廈) 過海的士站,Daytime,N,Y,,22.2817984000,114.1585153000
,urban,纜車站的士站,Daytime,N,Y,,22.2778248900,114.1596030000
,urban,林士街的士站,Daytime,N,Y,,22.2864638800,114.1533811000
,urban,香港站的士站 (地底),Daytime,N,Y,,22.2853379300,114.1568267000
,urban,IFC的士站,Daytime,N,N,,22.2854626400,114.1579011000
,urban,山頂的士站,Daytime,N,Y,,22.2703272700,114.1498825000
,urban,港澳碼頭的士站,"Daytime; Midnight",N,Y,,22.2882452100,114.1508913000
,cross-harbour,港澳碼頭過海的士站,"Daytime; Midnight",N,Y,,22.2882550900,114.1508320000
,urban,爹核士街,Daytime,N,Y,,22.2835831100,114.1266067000
,cross-harbour,加多近街過海的士站,Daytime,N,Y,,22.2818265100,114.1262251000
,urban,中環二號碼頭的士站,Daytime,N,Y,,22.2876671200,114.1568608000
,urban,中環四號碼頭,Daytime,N,N,,22.2872543300,114.1583681000
,cross-harbour,中環碼頭過海的士站,Daytime,N,Y,,22.2869170700,114.1597274000
,urban,中環六號碼頭的士站,Daytime,N,Y,,22.2867150700,114.1603633000
,urban,中環八號碼頭的士站,Daytime,N,Y,,22.2860914900,114.1614871000
,urban,IFC二期寫字樓的士站,PM,N,Y,,22.2856119500,114.1592869000
,urban,港景街的士站,"Daytime; Midnight",Y,N,未到正式站前靠右排 正式的士站沒人使用,22.2841311600,114.1585751000
,cross-harbour,中環交易廣場過海的士站,Daytime,N,Y,,22.2837763300,114.1586728000
,urban,畢打街的士站,"Daytime; Midnight",N,Y,,22.2817123300,114.1574332000
,cross-harbour,畢打街非法過海站,"Daytime; Midnight",Y,N,正式的士站前 車尾為隊頭第一輛 常有警方執法,22.2818036700,114.1575775000
,urban,蘭桂坊的士站,"PM; Midnight",N,Y,,22.2811756800,114.1559420000
,urban,帝景園,Daytime,N,Y,屋苑自設的士站,22.2756141200,114.1526370000
,urban,太古廣場二座,Daytime,N,Y,,22.2773636500,114.1647664000
,urban,太古廣場1座,"Daytime; Midnight",N,Y,,22.2775119700,114.1653531000
,urban,會展站的士站,Daytime,N,Y,,22.2812924800,114.1748455000
,cross-harbour,港灣道過海的士站,Daytime,N,Y,,22.2807024900,114.1750960000
,cross-harbour,馬師道非法過海站 (半夜),Midnight,Y,N,,22.2792473100,114.1796000000
,cross-harbour,駱克道過海的士站,"Daytime; Midnight",N,Y,,22.2782362700,114.1729198000
,cross-harbour,駱克道馬師道過海的士站,"Daytime; Midnight",N,Y,,22.2792366000,114.1788642000
,urban,會展舊翼的士站,Daytime,N,Y,,22.2812142000,114.1729511000
,urban,律敦治醫院的士站,Daytime,N,Y,,22.2758186600,114.1753869000
,urban,香港足球會,Daytime,N,N,,22.2756077200,114.1822887000
,cross-harbour,跑馬地非法過海站,"Daytime; Midnight",Y,N,,22.2697515600,114.1836409000
,urban,養和醫院的士站,Daytime,N,Y,,22.2695439200,114.1830575000
,urban,港安醫院,Daytime,N,Y,入閘有限時,22.2634216100,114.1840166000
,urban,合和中心 皇后大道東,Daytime,Y,N,,22.2749048500,114.1719681000
,urban,喜帖街 皇后大道東,Daytime,Y,N,,22.2749526400,114.1720176000
,urban,太古廣場三座,PM,N,N,,22.2766682000,114.1677509000
,urban,灣仔站 莊士敦道,Daytime,Y,N,,22.2766871500,114.1735543000
,urban,時代廣場的士站,"Daytime; Midnight",N,Y,,22.2786301400,114.1821601000
,cross-harbour,時代廣場過海的士站,"Daytime; Midnight",N,Y,,22.2787850500,114.1823464000
,urban,利園一期,Daytime,N,Y,,22.2782544000,114.1847491000
,urban,利園二期的士站,Daytime,N,Y,,22.2787652700,114.1851908000
,urban,邊寧頓街 渣甸街口,Daytime,Y,N,,22.2789737500,114.1860700000
,urban,Sogo 軒尼詩道,Midnight,Y,N,,22.2802311700,114.1845852000
,urban,百德新街的士站,"Daytime; Midnight",N,Y,,22.2807783000,114.1855179000
,cross-harbour,百德新街過海的士站,Daytime,N,Y,,22.2820077000,114.1850301000
,urban,天后的士站,"Daytime; Midnight",N,Y,,22.2832865500,114.1917671000
,cross-harbour,天后過海的士站,"Daytime; Midnight",N,Y,,22.2841863500,114.1915331000
,urban,城市花園,Daytime,Y,N,,22.2908426100,114.1942985000
,cross-harbour,北角道過海的士站,"Daytime; Midnight",N,Y,,22.2917465300,114.1964713000
,urban,明園西街,Daytime,Y,N,,22.2907305400,114.1987085000
,urban,北角站,Midnight,Y,N,,22.2909777400,114.2003210000
,urban,英皇道K11,"PM; Midnight",Y,N,,22.2916023300,114.2075162000
,urban,太古坊,Daytime,Y,N,,22.2874938800,114.2106738000
,cross-harbour,太古坊非法過海站,"Daytime; Midnight",Y,N,車尾為第一輛 倒車排隊,22.2875647500,114.2116131000
,urban,太古坊一座,"PM; Midnight",N,Y,,22.2876603300,114.2124981000
,urban,港島東中心,Daytime,N,Y,,22.2864193900,114.2133600000
,urban,太古城中心的士站,"Daytime; Midnight",N,Y,,22.2861276900,114.2174668000
,urban,康怡廣場 (東行),Daytime,Y,N,康山道東行巴士站尾,22.2847367900,114.2159638000
,urban,康怡廣場 西行,Daytime,Y,N,康安街落山方向 燈位禁區前,22.2841056000,114.2154480000
,cross-harbour,太安樓非法過海站,"Daytime; Midnight",Y,N,,22.2831992100,114.2216923000
,urban,嘉亨灣,Daytime,Y,N,排隊看嘉亨灣的士燈,22.2848719200,114.2236385000
,urban,興東邨,Daytime,Y,N,巴士站最前,22.2806283300,114.2197130000
,urban,愛蝶灣的士站,Daytime,N,Y,,22.2817456700,114.2287704000
,urban,東旭苑,Daytime,Y,N,巴士站前,22.2827740200,114.2270515000
,urban,望隆街,"Daytime; Midnight",Y,N,,22.2790198900,114.2294708000
,urban,東區醫院,Daytime,N,Y,,22.2692027800,114.2363512000
,urban,柴灣站的士站,"Daytime; Midnight",N,Y,,22.2642225400,114.2366280000
,urban,藍灣半島的士站,Daytime,N,Y,,22.2666764000,114.2505569000
,urban,藍灣半島的士站,Daytime,N,Y,,22.2663698800,114.2513018000
,urban,杏花邨的士站,"Daytime; Midnight",N,Y,,22.2763435500,114.2405832000
,cross-harbour,杏花邨過海的士站,Daytime,N,Y,,22.2782222600,114.2389632000
,urban,明報工業中心,PM,Y,N,,22.2687034400,114.2450361000
,urban,石澳泳灘,Daytime,N,N,,22.2298717300,114.2511419000
,urban,大浪灣,Daytime,N,N,,22.2446344700,114.2455701000
,urban,赤柱的士站,"Daytime; Midnight",N,Y,,22.2196871100,114.2127387000
,urban,赤柱廣場,"Daytime; Midnight",Y,N,迴旋處,22.2198041200,114.2097459000
,urban,淺水灣泳灘,Daytime,N,Y,,22.2367273900,114.1975640000
,urban,淺水灣,"Daytime; Midnight",N,Y,,22.2386225800,114.1947451000
,urban,海洋公園的士站,Daytime,N,Y,,22.2483803600,114.1749675000
,cross-harbour,海洋公園過海的士站,Daytime,N,Y,,22.2484215600,114.1747318000
,urban,港怡醫院,Daytime,N,Y,,22.2516648200,114.1763452000
,urban,水上樂園的士站,PM,N,Y,,22.2361110400,114.1675729000
,urban,深灣遊艇會,Daytime,N,Y,,22.2437082900,114.1642077000
,urban,利東邨的士站,"Daytime; Midnight",N,Y,,22.2411456600,114.1562232000
,urban,鴨脷洲邨的士站,"Daytime; Midnight",N,Y,,22.2442076400,114.1508680000
,urban,海怡半島一期,"Daytime; Midnight",N,N,,22.2444301200,114.1469862000
,urban,海怡半島三期,"Daytime; Midnight",N,N,,22.2429469200,114.1481612000
,urban,海怡半島二期,"Daytime; Midnight",N,N,,22.2435715100,114.1461061000
,urban,新海怡廣場的士站,Daytime,N,Y,,22.2392521100,114.1525860000
,urban,香港仔的士站,"Daytime; Midnight",N,Y,,22.2480721900,114.1539489000
,urban,石排灣邨口,"Daytime; Midnight",Y,N,,22.2482715900,114.1576685000
,urban,華貴邨的士站,"Daytime; Midnight",N,Y,,22.2497877500,114.1397168000
,urban,華富邨,"Daytime; Midnight",N,N,出閘後只能停2部車,22.2510303400,114.1367949000
,urban,貝沙灣四至六期,Daytime,N,Y,,22.2540296900,114.1335039000
,urban,貝沙灣一至二期,Daytime,Y,N,停巴士站等候的士燈,22.2581892300,114.1329732000
,urban,數碼港戲院,Daytime,Y,N,,22.2613352500,114.1297564000
,urban,數碼港 (南區方向),Daytime,Y,N,,22.2614489600,114.1301222000
,urban,瑪麗醫院的士站,Daytime,N,Y,,22.2704008700,114.1309215000
,urban,中環中心,Daytime,N,N,,22.2841550400,114.1544186000
,cross-harbour,中環中心非法過海站,Daytime,Y,N,,22.2841023100,114.1543725000
,cross-harbour,文咸東街非法過海站,Daytime,Y,N,,22.2856036300,114.1523734000
,urban,荷李活動些利街,Daytime,Y,N,,22.2821725000,114.1534100000
,urban,花園道三號,"Daytime; Midnight",N,Y,,22.2788633300,114.1611144000
,urban,尖沙咀碼頭的士站,Daytime,N,Y,,22.2942391300,114.1692275000
,urban,廣東道 MacroPolo酒店,Daytime,Y,N,,22.2952996100,114.1693898000
,urban,廣東道的士站,Daytime,N,Y,,22.2963460900,114.1692333000
,urban,太子酒店,Daytime,N,Y,,22.2992350200,114.1680154000
,urban,大潭道,Daytime,N,Y,,22.2279757100,114.2174404000
,urban,鴨脷洲南灣,Daytime,N,Y,,22.2411629700,114.1590569000
,urban,One Island South,PM,Y,N,,22.2486152000,114.1694080000
,urban,黃埔AEON,Daytime,N,Y,,22.3032561300,114.1900030000
,urban,黃埔聚寶坊,Daytime,N,Y,,22.3048448000,114.1898794000
,urban,紅磡站的士站,Daytime,N,Y,,22.3022541500,114.1825375000
,cross-harbour,紅磡站過海的士站,Daytime,N,Y,,22.3030435400,114.1826447000
,urban,海灣軒,Daytime,N,Y,,22.3001875700,114.1856160000
,urban,The One,Daytime,Y,N,,22.2964128300,114.1716665000
,urban,麼地道 棉登經,"Daytime; Midnight",Y,N,,22.2971775000,114.1745423000
,cross-harbour,麼地廣場過海的士站,"Daytime; Midnight",N,Y,,22.2985717100,114.1772763000
,urban,麼地道的士站,"Daytime; Midnight",N,Y,,22.2975746700,114.1770266000
,cross-harbour,天文臺道過海的士站,"Daytime; Midnight",N,Y,,22.3009893200,114.1758714000
,urban,諾士佛臺,Midnight,Y,N,,22.3006415900,114.1731637000
,urban,美麗華商場,Daytime,Y,N,,22.3005097500,114.1725144000
,urban,厚福街,"Daytime; Midnight",Y,N,路口,22.2993874600,114.1735576000
,urban,金域假日酒店,Daytime,N,Y,酒店內 一架,22.2969517300,114.1731456000
,urban,中港城的士站,Daytime,N,Y,地底正式的士站,22.3004850300,114.1677962000
,urban,中港城 廣東道,Daytime,Y,N,大馬路旁,22.3005773200,114.1680813000
,urban,高鐵站的士站,Daytime,N,Y,,22.3032487200,114.1641739000
,cross-harbour,高鐵站過海的士站,Daytime,N,Y,,22.3032240000,114.1642118000
,urban,西九文化區的士站,Daytime,N,Y,,22.3016155500,114.1561811000
,urban,九龍站的士站,Daytime,N,Y,地面交通交匯處入,22.3042737700,114.1608062000
,cross-harbour,ICC過海站,Daytime,N,Y,ICC8樓平台 收雙程隧道費,22.3033171100,114.1606398000
,urban,ICC的士站,Daytime,N,Y,ICC8樓平台,22.3032149300,114.1606019000
,urban,麗思卡爾頓酒店,Daytime,N,Y,一架的士,22.3034934400,114.1599345000
,urban,海逸豪園,Daytime,N,Y,,22.3078686700,114.1927269000
,urban,伊利沙伯醫院的士站,Daytime,N,Y,,22.3089909500,114.1751576000
,urban,君頤峰的士站,Daytime,N,Y,,22.3109240500,114.1766177000
,urban,愛民邨的士站,"Daytime; Midnight",N,Y,,22.3137998000,114.1777697000
,cross-harbour,彌敦道南行 咸美頓街,Midnight,Y,N,燈位前,22.3147424500,114.1704031000
,cross-harbour,佐敦道東行,Midnight,Y,N,,22.3053357000,114.1711052000
,urban,赤柱大街,"Daytime; Midnight",Y,N,,22.2185143600,114.2115725000
,urban,滙豐總行,PM,N,N,,22.2799409100,114.1593360000
,urban,太子大廈,Midnight,Y,N,,22.2813301700,114.1588878000
,urban,銅鑼灣駱克道的士站,Daytime,N,Y,,22.2806891000,114.1830672000
,urban,勵德邨,Daytime,Y,N,巴士站尾,22.2782138100,114.1941878000
,urban,北海街的士站,Daytime,N,Y,,22.3077590700,114.1712082000
,urban,寧波街的士站,Daytime,N,Y,,22.3065445000,114.1712922000
,urban,駿發花園,Daytime,N,N,,22.3099789200,114.1690707000
,urban,奧海城二期的士站,Daytime,N,Y,,22.3175860700,114.1621310000
,cross-harbour,奧海城二期過海的士站,Daytime,N,Y,,22.3176618800,114.1620618000
,urban,大角咀滙豐中心,PM,N,N,,22.3190939900,114.1611389000
,urban,一號銀海,Daytime,Y,N,等待的士燈,22.3181711100,114.1564619000
,urban,浪澄灣,Daytime,Y,N,等待的士燈,22.3191302400,114.1565888000
,urban,奧海城一期的士站,Daytime,N,Y,,22.3185435600,114.1583522000
,urban,港灣豪庭,Daytime,Y,N,停迴旋處大門,22.3242555100,114.1600562000
,urban,朗豪坊的士站,"Daytime; Midnight",N,Y,,22.3188863400,114.1688103000
,urban,旺角東站的士站,Daytime,N,Y,,22.3218642700,114.1723766000
,urban,旺角中心的士站,"Daytime; Midnight",N,Y,,22.3199328200,114.1698123000
,urban,欽州街,"Daytime; Midnight",Y,N,,22.3324023700,114.1616679000
,urban,宇晴軒,Daytime,N,Y,,22.3338888600,114.1496788000
,urban,海麗邨的士站,"Daytime; Midnight",N,Y,,22.3323002000,114.1474177000
,urban,長沙灣廣場的士站,Daytime,N,Y,,22.3368733800,114.1488647000
,urban,長沙灣道 長荔街,"Daytime; Midnight",Y,N,,22.3370810300,114.1478034000
,urban,明愛醫院的士站,Daytime,N,Y,,22.3411383900,114.1533587000
,urban,南昌站,Daytime,Y,N,,22.3278835700,114.1539248000
,urban,南山邨的士站,Daytime,N,Y,,22.3328489800,114.1700950000
,urban,又一城的士站,Daytime,N,Y,地底，跟停車場入,22.3375902600,114.1743913000
,urban,九龍醫院的士站,Daytime,N,Y,,22.3239967700,114.1794053000
,urban,帝京酒店,Daytime,N,Y,平台,22.3242621000,114.1732121000
,urban,MOKO的士站,Daytime,N,Y,平台,22.3232304500,114.1726090000
,urban,九龍塘站的士站,Daytime,N,Y,,22.3367394800,114.1763565000
,urban,浸會醫院的士站,Daytime,N,Y,金城道入,22.3396762100,114.1797135000
,urban,樂富富美街,Daytime,Y,N,橋底,22.3406880800,114.1870067000
,urban,樂富的士站,Daytime,N,Y,,22.3385951300,114.1869572000
,urban,樂富商場,Daytime,N,Y,,22.3378996700,114.1881867000
,urban,正德街,Daytime,Y,N,,22.3411742400,114.1931290000
,urban,衙前圍道,"Daytime; Midnight",Y,N,,22.3288208700,114.1911118000
,urban,法國醫院,Daytime,Y,N,隊頭在迴旋處,22.3259995000,114.1843954000
,urban,富豪東方酒店的士站,Daytime,N,Y,,22.3301211300,114.1927986000
,urban,何文田邨,"Daytime; Midnight",Y,N,閘口,22.3169492200,114.1820199000
,urban,何文田廣場的士站,Daytime,N,Y,要入閘 留意免費時間,22.3160560100,114.1820314000
,urban,庇利街的士站,Daytime,N,Y,,22.3123348400,114.1888739000
,cross-harbour,新圍街過海的士站,"Daytime; Midnight",N,Y,,22.3120035900,114.1863360000
,urban,翔龍灣的士站,Daytime,N,Y,,22.3191031500,114.1930169000
,urban,Airside的士站,Daytime,N,Y,,22.3309983800,114.1977632000
,urban,沐寧街的士站,Daytime,N,Y,,22.3287323900,114.2010114000
,urban,德朗邨閘口,"Daytime; Midnight",Y,N,,22.3311977900,114.2041030000
,urban,麗晶花園閘口,Daytime,Y,N,,22.3291954800,114.2063195000
,cross-harbour,宏泰道過海的士站,Daytime,N,Y,,22.3202468600,114.2097639000
,urban,美羅中心,PM,Y,N,,22.3245959200,114.2103687000
,urban,兒童醫院,Daytime,N,Y,,22.3159752600,114.2090684000
,urban,啓德郵輪碼頭的士站,Daytime,N,Y,,22.3065668500,114.2130203000
,urban,德福的士站,Daytime,N,Y,,22.3212282400,114.2131612000
,urban,德福花園,Midnight,Y,N,,22.3219319400,114.2129906000
,urban,海濱道83,PM,Y,N,,22.3155179400,114.2143288000
,cross-harbour,創紀一期過海的士站,Daytime,N,Y,,22.3131019800,114.2216245000
,urban,創紀一期的士站,"Daytime; Midnight",N,Y,,22.3131530700,114.2214959000
,urban,APM的士站,Daytime,N,Y,,22.3121856900,114.2248859000
,urban,裕民坊的士站,"Daytime; Midnight",N,Y,,22.3136408700,114.2248315000
,urban,物華街,Midnight,Y,N,,22.3149988200,114.2243008000
,urban,牛頭角道,"PM; Midnight",Y,N,,22.3148884000,114.2217267000
,urban,牛頭角下邨,"Daytime; Midnight",Y,N,過馬路燈位,22.3213930400,114.2159892000
,urban,福淘街的士站,Daytime,N,Y,,22.3236804600,114.2157370000
,urban,淘大,Daytime,Y,N,,22.3258607600,114.2146279000
,urban,淘大的士站,"Daytime; Midnight",N,Y,,22.3235041200,114.2171395000
,urban,彩盈邨,"Daytime; Midnight",Y,N,巴士站,22.3283195700,114.2155112000
,urban,啓業邨,Daytime,Y,N,閘口,22.3294171300,114.2082568000
,urban,巧明街 駿業街,"PM; Midnight",Y,N,,22.3121626200,114.2237743000
,urban,駱駝漆大廈,Midnight,Y,N,,22.3104651900,114.2247367000
,urban,海濱匯,PM,Y,N,,22.3166056200,114.2141879000
,cross-harbour,麗港城過海的士站,Daytime,N,Y,,22.3052278600,114.2292687000
,urban,平田的士站,Daytime,N,Y,,22.3063056400,114.2370580000
,urban,興田邨,Daytime,Y,N,,22.3129025700,114.2393487000
,urban,坪石的士站,Daytime,N,Y,,22.3337563000,114.2101116000
,urban,坪石,Midnight,Y,N,,22.3340216300,114.2091722000
,urban,彩雲的士站,Daytime,N,Y,,22.3335140500,114.2150589000
,urban,彩輝邨的士站,Daytime,N,Y,,22.3348950700,114.2180615000
,urban,豐盛街的士站,Daytime,N,Y,,22.3375878900,114.2145991000
,urban,彩德商場,Daytime,Y,N,巴士站,22.3295127100,114.2127270000
,urban,順利紀律部隊宿舍的士站,Daytime,N,Y,,22.3318314400,114.2215470000
,urban,順利的士站,Daytime,N,Y,,22.3320390900,114.2255978000
,urban,香港站 港景街,Daytime,Y,N,,22.2847828300,114.1574334000
,cross-harbour,謝斐道過海的士站,Daytime,N,Y,,22.2808566800,114.1820615000
,urban,波斯富街,"Daytime; Midnight",Y,N,,22.2810952300,114.1822048000
,urban,順天閘口對面,Daytime,Y,N,,22.3261460700,114.2281382000
,urban,順天邨閘口,Daytime,Y,N,,22.3270495800,114.2257391000
,urban,聯合醫院的士站,Daytime,N,Y,,22.3228991000,114.2278576000
,urban,樂華邨,Daytime,Y,N,巴士總站旁 車頭向振華道,22.3206767800,114.2206592000
,urban,秀茂坪的士站,"Daytime; Midnight",N,Y,,22.3187140200,114.2318820000
,urban,寶逹邨的士站,Daytime,N,Y,,22.3174607200,114.2364280000
,urban,安逹邨的士站,Daytime,N,Y,,22.3210352200,114.2346951000
,urban,安泰邨的士站,Daytime,N,Y,,22.3280383800,114.2290689000
,urban,寶佩苑,Daytime,Y,N,大迴旋處口,22.3168878300,114.2290584000
,urban,翠屏的士站,Daytime,N,Y,,22.3156938600,114.2293043000
,urban,翠屏南邨,Daytime,Y,N,迴旋處路口,22.3132812000,114.2298284000
,urban,廣田邨口,Daytime,Y,N,的士站沒人用,22.3024612800,114.2402343000
,urban,啟田道,Daytime,Y,N,上山方向，雙黃線過馬路口,22.3081159700,114.2347118000
,urban,麗港城商場,Daytime,Y,N,巴士站,22.3068119900,114.2283588000
,urban,鯉魚門,"Daytime; Midnight",Y,N,轉彎位,22.2922099300,114.2383926000
,urban,鯉魚門的士站,"Daytime; Midnight",N,Y,正式站,22.2924892600,114.2380218000
,urban,大本型的士站,Daytime,N,Y,,22.2968152500,114.2389142000
,urban,油麗邨口,Daytime,Y,N,邨口路口,22.3017048500,114.2364731000
,urban,Mikiki,Daytime,Y,N,路口,22.3341225700,114.1970967000
,urban,大有街,Midnight,Y,N,沿大有街北行,22.3383941700,114.1989446000
,urban,大有街,Midnight,Y,N,沿大有街北行,22.3373707700,114.1981696000
,urban,竹園街市,Daytime,Y,N,竹園道西行，過馬路燼位,22.3451353000,114.1937151000
,urban,龍蟠苑,Daytime,N,Y,,22.3416052900,114.2011879000
,urban,鳳德邨,Daytime,N,N,閘內，留意入閘時間,22.3435272700,114.2010000000
,urban,彩明商場,Daytime,Y,N,花槽前,22.3056860000,114.2519107000
,urban,彩明的士站,"Daytime; Midnight",N,Y,,22.3063880400,114.2530157000
,urban,唐明苑的士站,"Daytime; Midnight",N,Y,,22.3080541700,114.2571242000
,urban,九龍東皇冠假日酒店,Daytime,N,N,酒店門外路口,22.3086919400,114.2596901000
,urban,將軍澳廣場,"Daytime; Midnight",Y,N,,22.3095966900,114.2619717000
,urban,尚德的士站,"Daytime; Midnight",N,Y,,22.3111268600,114.2596950000
,urban,寶盈花園,Daytime,Y,N,閘口,22.3067217600,114.2616306000
,urban,將軍澳Donki,"Daytime; Midnight",Y,N,,22.3029000600,114.2615465000
,urban,首都的士站,Daytime,N,Y,,22.2964531000,114.2700205000
,urban,坑口站,Daytime,N,Y,,22.3160312900,114.2647206000
,NT,坑口站,Daytime,N,Y,,22.3157840900,114.2650518000
,urban,坑口站A出口,Daytime,N,Y,,22.3160090400,114.2638752000
,urban,厚德商場,Daytime,Y,N,巴士站尾,22.3170868300,114.2657662000
,urban,厚德村口,Midnight,Y,N,,22.3168841300,114.2645204000
,urban,清水灣半島,Daytime,N,N,閘口,22.3075399900,114.2672618000
,urban,景林的士站,Daytime,N,Y,閘內，留意入閘時間,22.3225425200,114.2600460000
,urban,新都城二期的士站,Daytime,N,Y,室內總站,22.3229775900,114.2583651000
,urban,寶琳站的士站,Daytime,N,Y,,22.3225425200,114.2575642000
,urban,慧安園,Daytime,N,Y,,22.3243223500,114.2543407000
,urban,科大北閘,Daytime,N,Y,,22.3387093500,114.2623524000
,urban,清水灣二灘,Daytime,N,Y,,22.2870422300,114.2867874000
,NT,清水灣二灘,Daytime,N,Y,,22.2871386400,114.2869104000
,urban,清水灣郊野公園,PM,N,N,,22.2915814200,114.3016077000
,urban,西貢廟口,"Daytime; Midnight",N,N,停車場入少少,22.3814383700,114.2707201000
,urban,西貢碼頭,"Daytime; Midnight",N,Y,,22.3818363600,114.2739288000
,NT,西貢碼頭,"Daytime; Midnight",N,Y,,22.3817646700,114.2736914000
,urban,西貢東壩,Daytime,N,N,迴旋處反方向排，亭前為頭位,22.3654748600,114.3740420000
,NT,西貢東壩,Daytime,N,N,迴旋處反方向排，亭前為頭位,22.3655094600,114.3740766000
,urban,烏溪沙站,Daytime,N,Y,,22.4288349200,114.2445606000
,NT,烏溪沙站,Daytime,N,Y,,22.4289028400,114.2445384000
,urban,利安的士站,"Daytime; Midnight",N,Y,,22.4255066200,114.2406259000
,NT,利安的士站,"Daytime; Midnight",N,Y,,22.4256041800,114.2408939000
,NT,錦英苑的士站,"Daytime; Midnight",N,Y,,22.4232811700,114.2370790000
,urban,錦英苑的士站,"Daytime; Midnight",N,Y,,22.4237047700,114.2371914000
,urban,慈正邨閘口,Daytime,Y,N,,22.3501264900,114.2012100000
,urban,秀茂坪南邨,Daytime,Y,N,閘口,22.3153046900,114.2362442000
,urban,瑪嘉烈K座,Daytime,N,Y,,22.3413802800,114.1345896000
,urban,瑪嘉烈醫院的士站,Daytime,N,Y,,22.3405651900,114.1344389000
,urban,大連排道工業街口,Midnight,N,N,路口7-11門口,22.3628172500,114.1336560000
,urban,大連排道KCC,Daytime,N,Y,,22.3618675400,114.1329631000
,urban,葵芳邨,"Daytime; Midnight",Y,N,閘口,22.3597260700,114.1283887000
,urban,葵芳站的士站,Daytime,N,Y,,22.3560556800,114.1277218000
,urban,葵芳新都會的士站,Daytime,N,Y,,22.3570683700,114.1272723000
,urban,葵芳新都會,Daytime,Y,N,巴士站,22.3578143000,114.1262003000
,urban,葵涌廣場,Daytime,Y,N,,22.3583033600,114.1279392000
,urban,葵盛東商場,Daytime,Y,N,閘口,22.3635471300,114.1267882000
,urban,荃灣西站的士站,Daytime,N,Y,,22.3670643900,114.1109013000
,urban,如心廣場的士站,Daytime,N,Y,跟酒店牌入,22.3687785500,114.1127735000
,urban,禾笛街的士站,Daytime,N,Y,,22.3693960500,114.1140579000
,urban,海濱花園,Daytime,Y,N,迴旋處,22.3614130700,114.1126747000
,urban,荃灣有線,Midnight,N,N,有線大樓門口,22.3725576200,114.1069789000
,urban,荃灣TML,PM,N,N,TML門口,22.3733183800,114.1059020000
,urban,南豐紗廠,Daytime,Y,N,,22.3744743300,114.1101652000
,urban,荃灣港安醫院,Daytime,N,Y,,22.3764404400,114.1046917000
,urban,荃威花園,Daytime,Y,N,踏口,22.3791030800,114.1040890000
,urban,荃灣中心,Daytime,Y,N,閘口出口,22.3787029400,114.1074433000
,urban,愉景新城 美環街,Daytime,Y,N,燈位禁區前,22.3768232800,114.1107728000
,urban,愉景新城的士站,Daytime,N,Y,,22.3764206800,114.1126130000
,urban,荃灣站,Daytime,N,Y,,22.3726070200,114.1189880000
,NT,荃灣站,Daytime,N,Y,,22.3726169000,114.1189336000
,urban,葵涌邨橋底,"Daytime; Midnight",Y,N,橋底,22.3682746800,114.1272427000
,urban,石頭街,Daytime,Y,N,路口,22.3664073700,114.1240761000
,urban,石蔭商場,Daytime,Y,N,,22.3717450000,114.1385305000
,urban,安蔭邨的士站,Daytime,N,Y,,22.3698431100,114.1421082000
,urban,石籬一邨的士站,Daytime,N,Y,,22.3623887100,114.1383860000
,urban,石籬商場的士站,Daytime,N,Y,,22.3656737900,114.1386811000
,urban,麗晶中心,PM,Y,N,,22.3670433900,114.1383242000
,urban,雍雅軒,"Daytime; Midnight",Y,N,,22.3661023300,114.1370201000
,urban,葵興站的士站,Daytime,N,Y,,22.3632322100,114.1315836000
,urban,悅來酒店,Daytime,Y,N,,22.3689625700,114.1212468000
,urban,街市街麥當勞,"Daytime; Midnight",Y,N,,22.3720611600,114.1163859000
,urban,深井碧堤,Daytime,N,Y,,22.3671631800,114.0612386000
,urban,海韻花園,"Daytime; Midnight",Y,N,巴士站,22.3677121400,114.0615449000
,urban,黃金海岸的士站,"Daytime; Midnight",N,N,,22.3716875700,113.9930572000
,NT,三聖恒福花園的士站,Daytime,N,Y,,22.3821948800,113.9776149000
,urban,黃金海岸酒店,Daytime,N,N,,22.3723939900,113.9895819000
,urban,顯徑迴旋處,Daytime,Y,N,閘口,22.3623090500,114.1704575000
,urban,仁安醫院的士站,Daytime,N,Y,,22.3608122400,114.1752974000
,urban,隆亨山邊閘口,Daytime,N,N,,22.3658114900,114.1769202000
,urban,大圍的士站,Daytime,N,Y,,22.3735919300,114.1785158000
,urban,大圍站室內的士站,Daytime,N,Y,最尾一條坑,22.3722334400,114.1788122000
,urban,沙田市中心的士站,"Daytime; Midnight",N,Y,,22.3821183100,114.1885143000
,urban,新城市廣場的士站,Daytime,N,Y,,22.3817675700,114.1887563000
,urban,新城市廣場三期的士站,Daytime,N,Y,,22.3798360400,114.1872891000
,urban,沙田大會堂的士站,Daytime,N,Y,,22.3821281900,114.1898925000
,urban,沙田廣場,Daytime,Y,N,,22.3831557000,114.1894800000
,urban,美田邨,"Daytime; Midnight",Y,N,閘口,22.3766003700,114.1709897000
,urban,美林邨的士站,Daytime,N,Y,,22.3776970400,114.1752233000
,urban,新翠的士站,Daytime,N,Y,閘內，留意入閘時間,22.3704328200,114.1820651000
,urban,秦石的士站,Daytime,N,Y,,22.3729225600,114.1858541000
,urban,沙角邨,"Daytime; Midnight",Y,N,路口,22.3766670600,114.1939161000
,urban,愉翠苑,Daytime,Y,N,閘口,22.3822751500,114.2044950000
,urban,威爾斯親王醫院的士站,Daytime,N,Y,平台,22.3796792000,114.2019065000
,NT,威爾斯親王醫院的士站,Daytime,N,Y,平台,22.3796569700,114.2019608000
,urban,威爾斯親王醫院急症室,Daytime,Y,N,平台,22.3810228700,114.2018386000
,urban,麗豪酒店,Daytime,Y,N,,22.3821985800,114.1968159000
,urban,富豪花園的士站,Daytime,N,Y,入閘再出閘,22.3854243800,114.1991895000
,urban,第一城,Daytime,N,N,,22.3872669800,114.2032971000
,urban,廣源閘口,Daytime,Y,N,,22.3816206000,114.2138834000
,urban,廣源的士站,Daytime,N,Y,,22.3809833500,114.2163781000
,urban,禾輋的士站,"Daytime; Midnight",N,Y,,22.3877362800,114.1946373000
,urban,沙田娛樂城的士站,Daytime,N,Y,,22.3839004000,114.1920562000
,urban,穗禾苑的士站,Daytime,N,Y,,22.3927589900,114.1943903000
,urban,駿洋邨,"Daytime; Midnight",Y,N,,22.3987968600,114.1898394000
,urban,御龍山的士站,Daytime,N,Y,,22.3957266700,114.1989907000
,urban,駿景園的士站,Daytime,N,Y,,22.3995897200,114.2007048000
,urban,京瑞廣場,Daytime,Y,N,路口,22.3886896900,114.2081840000
,urban,京瑞廣場的士站,Daytime,N,Y,,22.3883685900,114.2078629000
,NT,富安花園,Daytime,N,Y,,22.4054608700,114.2236213000
,urban,富安花園,Daytime,N,Y,,22.4054905100,114.2237597000
,urban,富安花園,Midnight,Y,N,路口,22.4053126700,114.2231323000
,urban,錦泰,Daytime,Y,N,巴士站,22.4079926000,114.2201881000
,urban,耀安的士站,Daytime,N,Y,,22.4193088200,114.2298939000
,NT,耀安的士站,Daytime,N,Y,,22.4191803800,114.2298939000
,urban,新田圍的士站,Daytime,N,Y,,22.3696029100,114.1873126000
,urban,頌安的士站,Daytime,N,Y,,22.4224395200,114.2268311000
,NT,頌安的士站,Daytime,N,Y,,22.4224074100,114.2267891000
,urban,新港城的士站,Daytime,N,Y,,22.4239042200,114.2320650000
,NT,新港城的士站,Daytime,N,Y,,22.4239832600,114.2320427000
,urban,沙田馬場會員的士站,Daytime,N,Y,上一樓平台,22.4035355200,114.2065673000
,urban,沙田馬場看台的士站,Daytime,N,Y,,22.4017867700,114.2054657000
,urban,大學站的士站,Daytime,N,Y,,22.4129782600,114.2107046000
,NT,大學站的士站,Daytime,N,Y,,22.4129239200,114.2106626000
,NT,科學園的士站,Daytime,N,Y,,22.4250762300,114.2120211000
,urban,科學園的士站,Daytime,N,Y,,22.4251503200,114.2119124000
,NT,廣進街,Daytime,N,Y,,22.4461871600,114.1733702000
,urban,廣福邨的士站,"Daytime; Midnight",N,Y,,22.4486423200,114.1747361000
,NT,廣福邨的士站,"Daytime; Midnight",N,Y,,22.4487213600,114.1744916000
,urban,翠和里,"Daytime; Midnight",Y,N,路口,22.4524238600,114.1639102000
,urban,廣福道,"Daytime; Midnight",Y,N,,22.4483928500,114.1677090000
,urban,大埔火車站,Daytime,N,Y,,22.4441024900,114.1711954000
,NT,大埔火車站,Daytime,N,Y,,22.4441654800,114.1711497000
,NT,寶鄉街,Daytime,Y,N,,22.4482557700,114.1665283000
,NT,大埔中心的士站,"Daytime; Midnight",N,Y,,22.4520447200,114.1696924000
,urban,大埔中心的士站,"Daytime; Midnight",N,Y,,22.4525708300,114.1686278000
,urban,大埔中心,"Daytime; Midnight",Y,N,避車處,22.4528400500,114.1677460000
,NT,太和邨,Daytime,N,Y,,22.4516248200,114.1623071000
,NT,太和火車站,Daytime,N,Y,,22.4510270900,114.1604868000
,urban,太和火車站,Daytime,N,Y,,22.4507726800,114.1607066000
,NT,太和火車站,Daytime,N,Y,,22.4505083900,114.1610326000
,urban,長發的士站,"Daytime; Midnight",N,Y,,22.3614562900,114.1033931000
,urban,長安邨 船廠,Daytime,N,N,閘口,22.3622862100,114.1008342000
,urban,青衣城的士站,Daytime,N,Y,,22.3596285100,114.1067869000
,urban,青衣站的士站,Daytime,N,Y,機鐵站入面,22.3585639400,114.1071944000
,NT,青衣站的士站,Daytime,N,Y,機鐵站入面,22.3586281600,114.1072932000
,urban,宏福花園,Daytime,Y,N,燈位前,22.3548688500,114.1073105000
,urban,偉景花園的士站,Daytime,N,Y,,22.3555481000,114.1038204000
,urban,青怡花園,Daytime,Y,N,閘口,22.3538364000,114.1060582000
,urban,青衣碼頭的士站,Daytime,N,Y,,22.3537190700,114.1093124000
,urban,青衣碼頭太興,"Daytime; Midnight",Y,N,,22.3535535900,114.1093495000
,urban,翠怡花園,Daytime,Y,N,,22.3532152000,114.1085912000
,urban,長亨的士站,Daytime,N,Y,,22.3556604800,114.0975257000
,urban,長康邨的士站,Daytime,N,Y,,22.3496312600,114.0986075000
,urban,長青閘口,Daytime,Y,N,,22.3452754400,114.1078403000
,urban,青松樓閘口,Daytime,Y,N,,22.3477141400,114.1076419000
,urban,藍澄灣,Daytime,N,N,,22.3431496100,114.1099176000
,urban,青楊樓路口,Daytime,Y,N,,22.3500079300,114.1076814000
,NT,運頭塘的士站,"Daytime; Midnight",N,Y,,22.4422755300,114.1665201000
,urban,富善邨的士站,"Daytime; Midnight",N,Y,,22.4542302400,114.1746068000
,NT,富善邨的士站,"Daytime; Midnight",N,Y,,22.4541857800,114.1746142000
,NT,富亨邨的士站,"Daytime; Midnight",N,Y,,22.4583094200,114.1720319000
,urban,富亨邨的士站,"Daytime; Midnight",N,Y,,22.4584946600,114.1719911000
,NT,那打素醫院,Daytime,N,N,,22.4587169600,114.1744747000
,NT,大尾篤的士站,Daytime,N,Y,,22.4724154800,114.2326724000
,NT,花都麥當勞,"Daytime; Midnight",Y,N,閘口,22.4853291600,114.1406687000
,urban,花都麥當勞,"Daytime; Midnight",Y,N,閘口,22.4853933800,114.1406390000
,NT,華明的士站,Daytime,N,Y,,22.4842757100,114.1417505000
,urban,牽晴間,Midnight,Y,N,巴士站,22.4865913200,114.1434276000
,NT,粉嶺火車站的士站,Daytime,N,Y,,22.4928156800,114.1382827000
,NT,祥華邨的士站,Daytime,N,Y,,22.4928181500,114.1414590000
,NT,綠悠軒的士站,Daytime,N,Y,,22.5010876400,114.1447688000
,NT,聯和墟街市的士站,Daytime,N,Y,,22.5000428400,114.1442477000
,NT,上水火車站的士站,Daytime,N,Y,,22.5015643500,114.1272295000
,urban,上水火車站的士站,Daytime,N,Y,,22.5016384500,114.1270368000
,NT,上水廣場的士站,Daytime,N,Y,,22.5021559100,114.1276494000
,NT,北區醫院,"Daytime; Midnight",N,N,,22.4965632600,114.1250892000
,NT,清河邨的士站,Daytime,N,Y,,22.4946959500,114.1278964000
,urban,清河邨的士站,Daytime,N,Y,,22.4945897400,114.1277284000
,NT,香園圍口岸的士站,Daytime,N,Y,,22.5525947900,114.1534162000
,urban,香園圍口岸的士站,Daytime,N,Y,,22.5526441900,114.1534236000
,NT,新田皇巴站的士站,"Daytime; Midnight",N,Y,,22.5027357400,114.0824043000
,urban,新田皇巴站的士站,"Daytime; Midnight",N,Y,,22.5026542300,114.0822808000
,urban,新田皇巴站,"Daytime; Midnight",Y,N,站外避車處,22.5030914200,114.0816855000
,urban,落馬洲支線的士站,Daytime,N,Y,需先前往洲頭候籌區取籌 關口開放時間0630-2230,22.5153746400,114.0668076000
,NT,落馬洲支線的士站,Daytime,N,Y,需先前往洲頭候籌區取籌 關口開放時間0630-2230,22.5153548800,114.0666791000
,urban,落馬洲 (光明頂),Midnight,N,Y,需先前往皇巴站取籌 關口開放時間2230-0630,22.5079190000,114.0752018000
,NT,落馬洲 (光明頂),Midnight,N,Y,需先前往皇巴站取籌 關口開放時間2230-0630,22.5079856900,114.0752734000
,NT,博愛醫院,"Daytime; Midnight",N,N,,22.4452753200,114.0415261000
,NT,元朗西鐵站的士站,Daytime,N,Y,,22.4462361500,114.0354968000
,urban,元朗西鐵站的士站,Daytime,N,Y,,22.4462929600,114.0355018000
,urban,裕景坊的士站,Daytime,N,Y,,22.4435648600,114.0281437000
,NT,裕景坊的士站,Daytime,N,Y,,22.4435698000,114.0280894000
,NT,西裕街的士站,Daytime,N,Y,,22.4423780300,114.0267198000
,NT,朗屏邨的士站,Daytime,N,Y,,22.4501411900,114.0229456000
,NT,天耀邨的士站,"Daytime; Midnight",N,Y,,22.4504684600,114.0032562000
,urban,天耀邨的士站,"Daytime; Midnight",N,Y,,22.4503993000,114.0032907000
,NT,天慈邨的士站,Daytime,N,Y,,22.4533904500,114.0071229000
,NT,天瑞邨的士站,Daytime,N,Y,,22.4554726400,113.9986484000
,urban,天瑞邨的士站,Daytime,N,Y,,22.4555146300,113.9987546000
,NT,銀座的士站,Daytime,N,Y,,22.4582896600,114.0036137000
,NT,天悅邨的士站,Daytime,N,Y,,22.4627924300,113.9984885000
,NT,天恩邨的士站,Daytime,N,Y,,22.4626343500,113.9963989000
,NT,天頌77的士站,Daytime,N,Y,,22.4603607400,113.9976487000
,NT,俊宏軒的士站,Daytime,N,Y,,22.4684647500,114.0008621000
,urban,俊宏軒的士站,Daytime,N,Y,,22.4684548700,114.0009609000
,NT,天恆邨的士站,Daytime,N,Y,,22.4694008700,113.9993270000
,NT,洪福邨的士站,"Daytime; Midnight",N,Y,,22.4362216100,113.9972066000
,NT,天恆閘口,Daytime,Y,N,,22.4703024100,114.0009832000
,NT,流浮山,Daytime,Y,N,,22.4675755500,113.9840576000
,urban,深圳灣口岸的士站,Daytime,N,Y,口岸開放時間0630-0000,22.5015279200,113.9448812000
,NT,深圳灣口岸的士站,Daytime,N,Y,口岸開放時間0630-0000,22.5015229800,113.9447923000
,NT,天平邨的士站,Daytime,N,Y,,22.5029580400,114.1348278000
,NT,皇后山的士站,Daytime,N,Y,,22.5038694600,114.1568625000
,NT,大欖隧道轉車站,Daytime,Y,N,,22.4215375700,114.0640924000
,NT,錦上路站的士站,Daytime,N,Y,,22.4343641800,114.0651150000
,NT,欣田邨,"Daytime; Midnight",Y,N,巴士站,22.4143968500,113.9770305000
,NT,寶田邨的士站,Daytime,N,Y,,22.4102769200,113.9670493000
,NT,屯門醫院的士站,"Daytime; Midnight",N,Y,,22.4083157500,113.9764476000
,NT,建生邨的士站,Daytime,N,Y,,22.4072339000,113.9691241000
,NT,良景的士站,Daytime,N,Y,,22.4064583300,113.9638285000
,NT,富泰閘口,Daytime,N,N,,22.4126975000,113.9841910000
,urban,田景紅的站,Daytime,N,Y,,22.4050529100,113.9655649000
,NT,山景的士站,Daytime,N,Y,閘內，留意入閘時間,22.3970625200,113.9655562000
,NT,大興的士站,Daytime,N,Y,,22.4029250200,113.9703208000
,urban,石排頭路德雅,Midnight,N,N,,22.4007909500,113.9692069000
,NT,龍門居富健花園,"Daytime; Midnight",Y,N,,22.3843235900,113.9653531000
,urban,龍門居紅的站,Daytime,N,Y,,22.3849423200,113.9658150000
,NT,龍門居的士站,Daytime,N,Y,,22.3846138100,113.9658347000
,NT,新屯門中心的士站,Daytime,N,Y,,22.3807581700,113.9643453000
,NT,蝴蝶邨的士站,Daytime,N,Y,,22.3738866800,113.9638593000
,NT,屯門碼頭的士站,Daytime,N,Y,,22.3724923800,113.9674396000
,urban,屯門碼頭的士站,Daytime,N,Y,,22.3725072000,113.9674779000
,NT,兆麟的士站,Daytime,N,Y,,22.3849676400,113.9761395000
,urban,屯門市廣場紅的站,Daytime,N,Y,,22.3925727100,113.9756479000
,NT,屯門市廣場惖士站,Daytime,N,Y,,22.3929036900,113.9762753000
,NT,屯門市廣場惖士站,Daytime,N,Y,,22.3922195000,113.9764482000
,NT,屯盛街的士站,Daytime,N,Y,,22.3925356600,113.9780858000
,NT,屯利街的士站,Daytime,N,Y,,22.3913599500,113.9789997000
,NT,置樂的士站,Daytime,N,Y,,22.3875833500,113.9804768000
,NT,屯門站平台的士站,Daytime,N,Y,,22.3965768600,113.9735433000
,urban,屯門站的士站,Daytime,N,Y,,22.3953539100,113.9737547000
,urban,麗瑤的士站,Daytime,N,Y,,22.3529665500,114.1321028000
,urban,荔景站,Daytime,Y,N,巴士站頭,22.3480352400,114.1268096000
,urban,荔景站,Daytime,Y,N,小巴站尾,22.3480327700,114.1266762000
,urban,永得利廣場,PM,N,Y,大廈內設有的士站,22.3523305300,114.1242630000
,urban,葵涌嘉里中心,PM,N,Y,大廈內設有的士站,22.3628032600,114.1207260000
,urban,馬灣迴旋處,Daytime,N,N,,22.3498037400,114.0609352000
,urban,馬灣 (入村),Daytime,N,N,,22.3532222000,114.0598089000
,NT,黃金泳灘,Daytime,Y,N,,22.3730400900,113.9885178000
,urban,屯隆街,Daytime,Y,N,,22.3936348000,113.9758443000
,NT,蝴蝶灣公園的士站,Daytime,N,Y,,22.3743343600,113.9584729000
,urban,港珠澳的士站,"Daytime; Midnight",N,Y,,22.3158353200,113.9518188000
,NT,港珠澳的士站,"Daytime; Midnight",N,Y,,22.3158600200,113.9516879000
,lantau,港珠澳的士站,"Daytime; Midnight",N,Y,,22.3164182400,113.9521498000
,urban,機場的士站,"Daytime; Midnight",N,Y,需先去南商用停車場取籌,22.3171271200,113.9358380000
,NT,機場的士站,"Daytime; Midnight",N,Y,,22.3171839300,113.9360208000
,lantau,機場的士站,"Daytime; Midnight",N,Y,,22.3172209800,113.9361097000
,urban,博覽館的士站,Daytime,N,Y,,22.3199577200,113.9428701000
,lantau,博覽館的士站,Daytime,N,Y,,22.3201726100,113.9439297000
,lantau,東涌纜車站的士站,Daytime,N,Y,,22.2900989200,113.9388760000
,urban,東涌纜車站的士站,Daytime,N,Y,,22.2901211400,113.9388044000
,lantau,東涌站的士站,"Daytime; Midnight",N,Y,,22.2892437700,113.9418317000
,urban,東涌站的士站,Daytime,N,Y,,22.2888957900,113.9413973000
,urban,東涌喜來登酒店,Daytime,N,N,,22.2956210100,113.9464295000
,urban,愉景灣酒店的士站,Daytime,N,Y,,22.3074845600,114.0161819000
,lantau,愉景灣社區會堂的士站,Daytime,N,Y,,22.3081015600,114.0158216000
,NT,迪士尼的士站,PM,N,Y,,22.3162051500,114.0450707000
,urban,迪士尼的士站,PM,N,Y,,22.3163705000,114.0450633000
,lantau,迪士尼的士站,PM,N,Y,,22.3160669400,114.0450510000
,urban,迪士尼樂園酒店的士站,Daytime,N,Y,,22.3087420000,114.0447820000
,lantau,梅窩碼頭的士站,"Daytime; Midnight",N,Y,,22.2649798900,114.0014370000
,lantau,大澳的士站,"Daytime; Midnight",N,Y,,22.2525348300,113.8624845000
,lantau,昂坪的士站,Daytime,N,Y,,22.2557172800,113.9026434000
,urban,逸東迴旋處,"Daytime; Midnight",N,N,閘內，留意入閘時間,22.2814816900,113.9361720000
,urban,荃灣廣場,Daytime,Y,N,海貴路轉出海盛路西行路口,22.3701066100,114.1112747000
,urban,海盛路的士站,Daytime,N,Y,,22.3700054300,114.1121435000
,urban,梨木樹的士站,Daytime,N,Y,,22.3777400600,114.1363617000
,urban,象山的士站,Daytime,N,Y,,22.3786075500,114.1312407000
,urban,石圍角,Daytime,Y,N,,22.3752128500,114.1236998000
,urban,四號櫃的士站,Daytime,N,Y,,22.3417520700,114.1274511000
,urban,三號櫃的士站,Daytime,N,Y,跟上落客/各類車輛進入ATL大廈內，入閘後左邊,22.3434500300,114.1244056000
,urban,觀海徑的士站,Daytime,N,Y,,22.2470830700,114.1586734000
,urban,富榮花園的士站,Daytime,N,Y,,22.3145574700,114.1643312000
,urban,廟街,"Daytime; Midnight",Y,N,,22.3054185600,114.1697238000
,urban,伊利沙伯醫院日間醫療中心的士站,Daytime,N,Y,,22.3084443000,114.1752224000
,urban,陽明山莊的士站,Daytime,N,Y,,22.2579952200,114.1995455000
,urban,沙田站的士站,Daytime,N,Y,,22.3843776700,114.1877622000
,NT,天水圍站,Daytime,Y,N,,22.4470099000,114.0032047000
,NT,天水圍站的士站,Daytime,N,Y,,22.4499739400,114.0060367000
,NT,元朗廣場,Daytime,Y,N,,22.4446554500,114.0241170000
,urban,元朗大馬路,"Daytime; Midnight",Y,N,,22.4446073300,114.0277030000
,NT,粉嶺中心,Daytime,Y,N,,22.4909373600,114.1418492000
,NT,井財街,Midnight,Y,N,,22.4026739900,113.9777845000
,urban,深灣巴士總站的士站,Daytime,N,Y,,22.2431485000,114.1640524000
,urban,深灣9號,Daytime,N,N,,22.2461248800,114.1639561000
